{
  "type": "FeatureCollection",
  "features": [
    {
      "type": "Feature",
      "geometry": { "type": "Point", "coordinates": [16.400223, 48.142196] },
      "properties": {
        "id": 1,
        "name": "Oberlaa",
        "line": "ViennaUBahnU1",
        "order": 0
      },
      "id": 1
    },
    {
      "type": "Feature",
      "geometry": { "type": "Point", "coordinates": [16.386363, 48.1457] },
      "properties": {
        "id": 2,
        "name": "Neulaa",
        "line": "ViennaUBahnU1",
        "order": 3
      },
      "id": 2
    },
    {
      "type": "Feature",
      "geometry": { "type": "Point", "coordinates": [16.382348, 48.153492] },
      "properties": {
        "id": 3,
        "name": "Alaudagasse",
        "line": "ViennaUBahnU1",
        "order": 13
      },
      "id": 3
    },
    {
      "type": "Feature",
      "geometry": { "type": "Point", "coordinates": [16.383579, 48.16184] },
      "properties": {
        "id": 4,
        "name": "Altes Landgut",
        "line": "ViennaUBahnU1",
        "order": 22
      },
      "id": 4
    },
    {
      "type": "Feature",
      "geometry": { "type": "Point", "coordinates": [16.380509, 48.168541] },
      "properties": {
        "id": 5,
        "name": "Troststraße",
        "line": "ViennaUBahnU1",
        "order": 24
      },
      "id": 5
    },
    {
      "type": "Feature",
      "geometry": { "type": "Point", "coordinates": [16.377946, 48.174864] },
      "properties": {
        "id": 6,
        "name": "Reumannplatz",
        "line": "ViennaUBahnU1",
        "order": 27
      },
      "id": 6
    },
    {
      "type": "Feature",
      "geometry": { "type": "Point", "coordinates": [16.376179, 48.179269] },
      "properties": {
        "id": 7,
        "name": "Keplerplatz",
        "line": "ViennaUBahnU1",
        "order": 28
      },
      "id": 7
    },
    {
      "type": "Feature",
      "geometry": { "type": "Point", "coordinates": [16.373555, 48.187193] },
      "properties": {
        "id": 8,
        "name": "Südtiroler Pl. - Hbf.",
        "short_name": "Südtiroler Platz",
        "long_name": "Südtiroler Platz - Hauptbahnhof",
        "line": "ViennaUBahnU1",
        "order": 33
      },
      "id": 8
    },
    {
      "type": "Feature",
      "geometry": { "type": "Point", "coordinates": [16.370341, 48.193786] },
      "properties": {
        "id": 9,
        "name": "Taubstummengasse",
        "line": "ViennaUBahnU1",
        "order": 36
      },
      "id": 9
    },
    {
      "type": "Feature",
      "geometry": { "type": "Point", "coordinates": [16.369014, 48.201225] },
      "properties": {
        "id": 10,
        "name": "Karlsplatz",
        "line": "ViennaUBahnU1",
        "order": 45
      },
      "id": 10
    },
    {
      "type": "Feature",
      "geometry": { "type": "Point", "coordinates": [16.371625, 48.208078] },
      "properties": {
        "id": 11,
        "name": "Stephansplatz",
        "line": "ViennaUBahnU1",
        "order": 56
      },
      "id": 11
    },
    {
      "type": "Feature",
      "geometry": { "type": "Point", "coordinates": [16.378084, 48.211898] },
      "properties": {
        "id": 12,
        "name": "Schwedenplatz",
        "line": "ViennaUBahnU1",
        "order": 64
      },
      "id": 12
    },
    {
      "type": "Feature",
      "geometry": { "type": "Point", "coordinates": [16.385505, 48.215269] },
      "properties": {
        "id": 13,
        "name": "Nestroyplatz",
        "line": "ViennaUBahnU1",
        "order": 70
      },
      "id": 13
    },
    {
      "type": "Feature",
      "geometry": { "type": "Point", "coordinates": [16.391505, 48.219009] },
      "properties": {
        "id": 14,
        "name": "Praterstern",
        "line": "ViennaUBahnU1",
        "order": 77
      },
      "id": 14
    },
    {
      "type": "Feature",
      "geometry": { "type": "Point", "coordinates": [16.401146, 48.223707] },
      "properties": {
        "id": 15,
        "name": "Vorgartenstraße",
        "line": "ViennaUBahnU1",
        "order": 86
      },
      "id": 15
    },
    {
      "type": "Feature",
      "geometry": { "type": "Point", "coordinates": [16.411346, 48.229207] },
      "properties": {
        "id": 16,
        "name": "Donauinsel",
        "line": "ViennaUBahnU1",
        "order": 87
      },
      "id": 16
    },
    {
      "type": "Feature",
      "geometry": { "type": "Point", "coordinates": [16.416285, 48.232781] },
      "properties": {
        "id": 17,
        "name": "Kaisermühlen-VIC",
        "line": "ViennaUBahnU1",
        "order": 95
      },
      "id": 17
    },
    {
      "type": "Feature",
      "geometry": { "type": "Point", "coordinates": [16.424381, 48.238056] },
      "properties": {
        "id": 18,
        "name": "Alte Donau",
        "line": "ViennaUBahnU1",
        "order": 103
      },
      "id": 18
    },
    {
      "type": "Feature",
      "geometry": { "type": "Point", "coordinates": [16.433172, 48.243281] },
      "properties": {
        "id": 19,
        "name": "Kagran",
        "line": "ViennaUBahnU1",
        "order": 107
      },
      "id": 19
    },
    {
      "type": "Feature",
      "geometry": { "type": "Point", "coordinates": [16.443408, 48.250405] },
      "properties": {
        "id": 20,
        "name": "Kagraner Platz",
        "line": "ViennaUBahnU1",
        "order": 121
      },
      "id": 20
    },
    {
      "type": "Feature",
      "geometry": { "type": "Point", "coordinates": [16.449559, 48.257582] },
      "properties": {
        "id": 21,
        "name": "Rennbahnweg",
        "line": "ViennaUBahnU1",
        "order": 130
      },
      "id": 21
    },
    {
      "type": "Feature",
      "geometry": { "type": "Point", "coordinates": [16.451545, 48.263414] },
      "properties": {
        "id": 22,
        "name": "Aderklaaer Straße",
        "line": "ViennaUBahnU1",
        "order": 135
      },
      "id": 22
    },
    {
      "type": "Feature",
      "geometry": { "type": "Point", "coordinates": [16.447872, 48.271017] },
      "properties": {
        "id": 23,
        "name": "Großfeldsiedlung",
        "line": "ViennaUBahnU1",
        "order": 147
      },
      "id": 23
    },
    {
      "type": "Feature",
      "geometry": { "type": "Point", "coordinates": [16.450419, 48.277228] },
      "properties": {
        "id": 24,
        "name": "Leopoldau",
        "line": "ViennaUBahnU1",
        "order": 159
      },
      "id": 24
    },
    {
      "type": "Feature",
      "geometry": { "type": "Point", "coordinates": [16.508436, 48.226106] },
      "properties": {
        "id": 25,
        "name": "Seestadt",
        "line": "ViennaUBahnU2",
        "order": 0
      },
      "id": 25
    },
    {
      "type": "Feature",
      "geometry": { "type": "Point", "coordinates": [16.504736, 48.234579] },
      "properties": {
        "id": 26,
        "name": "Aspern Nord",
        "line": "ViennaUBahnU2",
        "order": 17
      },
      "id": 26
    },
    {
      "type": "Feature",
      "geometry": { "type": "Point", "coordinates": [16.485681, 48.233462] },
      "properties": {
        "id": 27,
        "name": "Hausfeldstraße",
        "line": "ViennaUBahnU2",
        "order": 20
      },
      "id": 27
    },
    {
      "type": "Feature",
      "geometry": { "type": "Point", "coordinates": [16.474839, 48.222607] },
      "properties": {
        "id": 28,
        "name": "Aspernstraße",
        "line": "ViennaUBahnU2",
        "order": 35
      },
      "id": 28
    },
    {
      "type": "Feature",
      "geometry": { "type": "Point", "coordinates": [16.465639, 48.219618] },
      "properties": {
        "id": 29,
        "name": "Donauspital",
        "line": "ViennaUBahnU2",
        "order": 48
      },
      "id": 29
    },
    {
      "type": "Feature",
      "geometry": { "type": "Point", "coordinates": [16.457184, 48.220996] },
      "properties": {
        "id": 30,
        "name": "Hardeggasse",
        "line": "ViennaUBahnU2",
        "order": 55
      },
      "id": 30
    },
    {
      "type": "Feature",
      "geometry": { "type": "Point", "coordinates": [16.447751, 48.218984] },
      "properties": {
        "id": 31,
        "name": "Stadlau",
        "line": "ViennaUBahnU2",
        "order": 68
      },
      "id": 31
    },
    {
      "type": "Feature",
      "geometry": { "type": "Point", "coordinates": [16.439932, 48.21168] },
      "properties": {
        "id": 32,
        "name": "Donaustadtbrücke",
        "line": "ViennaUBahnU2",
        "order": 80
      },
      "id": 32
    },
    {
      "type": "Feature",
      "geometry": { "type": "Point", "coordinates": [16.431238, 48.206299] },
      "properties": {
        "id": 33,
        "name": "Donaumarina",
        "line": "ViennaUBahnU2",
        "order": 83
      },
      "id": 33
    },
    {
      "type": "Feature",
      "geometry": { "type": "Point", "coordinates": [16.420229, 48.210852] },
      "properties": {
        "id": 34,
        "name": "Stadion",
        "line": "ViennaUBahnU2",
        "order": 100
      },
      "id": 34
    },
    {
      "type": "Feature",
      "geometry": { "type": "Point", "coordinates": [16.413804, 48.214731] },
      "properties": {
        "id": 35,
        "name": "Krieau",
        "line": "ViennaUBahnU2",
        "order": 104
      },
      "id": 35
    },
    {
      "type": "Feature",
      "geometry": { "type": "Point", "coordinates": [16.405006, 48.217772] },
      "properties": {
        "id": 36,
        "name": "Messe-Prater",
        "line": "ViennaUBahnU2",
        "order": 115
      },
      "id": 36
    },
    {
      "type": "Feature",
      "geometry": { "type": "Point", "coordinates": [16.391852, 48.218906] },
      "properties": {
        "id": 37,
        "name": "Praterstern",
        "line": "ViennaUBahnU2",
        "order": 123
      },
      "id": 37
    },
    {
      "type": "Feature",
      "geometry": { "type": "Point", "coordinates": [16.381359, 48.219193] },
      "properties": {
        "id": 38,
        "name": "Taborstraße",
        "line": "ViennaUBahnU2",
        "order": 135
      },
      "id": 38
    },
    {
      "type": "Feature",
      "geometry": { "type": "Point", "coordinates": [16.371749, 48.217246] },
      "properties": {
        "id": 39,
        "name": "Schottenring",
        "line": "ViennaUBahnU2",
        "order": 138
      },
      "id": 39
    },
    {
      "type": "Feature",
      "geometry": { "type": "Point", "coordinates": [16.362887, 48.215045] },
      "properties": {
        "id": 40,
        "name": "Schottentor",
        "line": "ViennaUBahnU2",
        "order": 147
      },
      "id": 40
    },
    {
      "type": "Feature",
      "properties": {
        "id": 401,
        "name": "Rathaus",
        "line": "ViennaUBahnU2",
        "order": 0
      },
      "id": 401,
      "geometry": { "type": "Point", "coordinates": [16.3555154, 48.2109976] }
    },
    {
      "type": "Feature",
      "properties": {
        "id": 402,
        "name": "Volkstheater",
        "line": "ViennaUBahnU2",
        "order": 1
      },
      "id": 402,
      "geometry": { "type": "Point", "coordinates": [16.3584646, 48.204995] }
    },
    {
      "type": "Feature",
      "properties": {
        "id": 403,
        "name": "Museumsquartier",
        "line": "ViennaUBahnU2",
        "order": 2
      },
      "id": 403,
      "geometry": { "type": "Point", "coordinates": [16.3628071, 48.2018125] }
    },
    {
      "type": "Feature",
      "properties": {
        "id": 404,
        "name": "Karlsplatz",
        "line": "ViennaUBahnU2",
        "order": 3
      },
      "id": 404,
      "geometry": { "type": "Point", "coordinates": [16.3684471, 48.2008544] }
    },
    {
      "type": "Feature",
      "geometry": { "type": "Point", "coordinates": [16.311115, 48.211815] },
      "properties": {
        "id": 41,
        "name": "Ottakring",
        "line": "ViennaUBahnU3",
        "order": 0
      },
      "id": 41
    },
    {
      "type": "Feature",
      "geometry": { "type": "Point", "coordinates": [16.309219, 48.204566] },
      "properties": {
        "id": 42,
        "name": "Kendlerstraße",
        "line": "ViennaUBahnU3",
        "order": 1
      },
      "id": 42
    },
    {
      "type": "Feature",
      "geometry": { "type": "Point", "coordinates": [16.311366, 48.199782] },
      "properties": {
        "id": 43,
        "name": "Hütteldorfer Straße",
        "line": "ViennaUBahnU3",
        "order": 2
      },
      "id": 43
    },
    {
      "type": "Feature",
      "geometry": { "type": "Point", "coordinates": [16.320053, 48.197608] },
      "properties": {
        "id": 44,
        "name": "Johnstraße",
        "line": "ViennaUBahnU3",
        "order": 3
      },
      "id": 44
    },
    {
      "type": "Feature",
      "geometry": { "type": "Point", "coordinates": [16.328623, 48.197746] },
      "properties": {
        "id": 45,
        "name": "Schweglerstraße",
        "line": "ViennaUBahnU3",
        "order": 4
      },
      "id": 45
    },
    {
      "type": "Feature",
      "geometry": { "type": "Point", "coordinates": [16.336438, 48.196926] },
      "properties": {
        "id": 46,
        "name": "Westbahnhof",
        "line": "ViennaUBahnU3",
        "order": 5
      },
      "id": 46
    },
    {
      "type": "Feature",
      "geometry": { "type": "Point", "coordinates": [16.34623, 48.197195] },
      "properties": {
        "id": 47,
        "name": "Zieglergasse",
        "line": "ViennaUBahnU3",
        "order": 6
      },
      "id": 47
    },
    {
      "type": "Feature",
      "geometry": { "type": "Point", "coordinates": [16.352464, 48.199243] },
      "properties": {
        "id": 48,
        "name": "Neubaugasse",
        "line": "ViennaUBahnU3",
        "order": 7
      },
      "id": 48
    },
    {
      "type": "Feature",
      "geometry": { "type": "Point", "coordinates": [16.359166, 48.205583] },
      "properties": {
        "id": 49,
        "name": "Volkstheater",
        "line": "ViennaUBahnU3",
        "order": 8
      },
      "id": 49
    },
    {
      "type": "Feature",
      "geometry": { "type": "Point", "coordinates": [16.365113, 48.209367] },
      "properties": {
        "id": 50,
        "name": "Herrengasse",
        "line": "ViennaUBahnU3",
        "order": 9
      },
      "id": 50
    },
    {
      "type": "Feature",
      "geometry": { "type": "Point", "coordinates": [16.371554, 48.20811] },
      "properties": {
        "id": 51,
        "name": "Stephansplatz",
        "line": "ViennaUBahnU3",
        "order": 10
      },
      "id": 51
    },
    {
      "type": "Feature",
      "geometry": { "type": "Point", "coordinates": [16.379252, 48.206871] },
      "properties": {
        "id": 52,
        "name": "Stubentor",
        "line": "ViennaUBahnU3",
        "order": 11
      },
      "id": 52
    },
    {
      "type": "Feature",
      "geometry": { "type": "Point", "coordinates": [16.384337, 48.205793] },
      "properties": {
        "id": 53,
        "name": "Mitte-Landstraße",
        "short_name": "Landstraße",
        "long_name": "Bahnhof Wien Mitte",
        "line": "ViennaUBahnU3",
        "order": 12
      },
      "id": 53
    },
    {
      "type": "Feature",
      "geometry": { "type": "Point", "coordinates": [16.39164, 48.202452] },
      "properties": {
        "id": 54,
        "name": "Rochusgasse",
        "line": "ViennaUBahnU3",
        "order": 13
      },
      "id": 54
    },
    {
      "type": "Feature",
      "geometry": { "type": "Point", "coordinates": [16.400587, 48.197213] },
      "properties": {
        "id": 55,
        "name": "Kardinal-Nagl-Platz",
        "line": "ViennaUBahnU3",
        "order": 14
      },
      "id": 55
    },
    {
      "type": "Feature",
      "geometry": { "type": "Point", "coordinates": [16.406678, 48.194441] },
      "properties": {
        "id": 56,
        "name": "Schlachthausgasse",
        "line": "ViennaUBahnU3",
        "order": 15
      },
      "id": 56
    },
    {
      "type": "Feature",
      "geometry": { "type": "Point", "coordinates": [16.414223, 48.191428] },
      "properties": {
        "id": 57,
        "name": "Erdberg",
        "line": "ViennaUBahnU3",
        "order": 16
      },
      "id": 57
    },
    {
      "type": "Feature",
      "geometry": { "type": "Point", "coordinates": [16.417287, 48.184835] },
      "properties": {
        "id": 58,
        "name": "Gasometer",
        "line": "ViennaUBahnU3",
        "order": 17
      },
      "id": 58
    },
    {
      "type": "Feature",
      "geometry": { "type": "Point", "coordinates": [16.41196, 48.180253] },
      "properties": {
        "id": 59,
        "name": "Zippererstraße",
        "line": "ViennaUBahnU3",
        "order": 18
      },
      "id": 59
    },
    {
      "type": "Feature",
      "geometry": { "type": "Point", "coordinates": [16.414709, 48.17467] },
      "properties": {
        "id": 60,
        "name": "Enkplatz",
        "line": "ViennaUBahnU3",
        "order": 19
      },
      "id": 60
    },
    {
      "type": "Feature",
      "geometry": { "type": "Point", "coordinates": [16.419209, 48.169925] },
      "properties": {
        "id": 61,
        "name": "Simmering",
        "line": "ViennaUBahnU3",
        "order": 20
      },
      "id": 61
    },
    {
      "type": "Feature",
      "geometry": { "type": "Point", "coordinates": [16.36608, 48.248853] },
      "properties": {
        "id": 62,
        "name": "Heiligenstadt",
        "line": "ViennaUBahnU4",
        "order": 0
      },
      "id": 62
    },
    {
      "type": "Feature",
      "geometry": { "type": "Point", "coordinates": [16.358547, 48.234861] },
      "properties": {
        "id": 63,
        "name": "Spittelau",
        "line": "ViennaUBahnU4",
        "order": 17
      },
      "id": 63
    },
    {
      "type": "Feature",
      "geometry": { "type": "Point", "coordinates": [16.364383, 48.227573] },
      "properties": {
        "id": 64,
        "name": "Friedensbrücke",
        "line": "ViennaUBahnU4",
        "order": 30
      },
      "id": 64
    },
    {
      "type": "Feature",
      "geometry": { "type": "Point", "coordinates": [16.367588, 48.222346] },
      "properties": {
        "id": 65,
        "name": "Roßauer Lände",
        "line": "ViennaUBahnU4",
        "order": 37
      },
      "id": 65
    },
    {
      "type": "Feature",
      "geometry": { "type": "Point", "coordinates": [16.371984, 48.216615] },
      "properties": {
        "id": 66,
        "name": "Schottenring",
        "line": "ViennaUBahnU4",
        "order": 46
      },
      "id": 66
    },
    {
      "type": "Feature",
      "geometry": { "type": "Point", "coordinates": [16.378121, 48.21185] },
      "properties": {
        "id": 67,
        "name": "Schwedenplatz",
        "line": "ViennaUBahnU4",
        "order": 59
      },
      "id": 67
    },
    {
      "type": "Feature",
      "geometry": { "type": "Point", "coordinates": [16.384853, 48.206899] },
      "properties": {
        "id": 68,
        "name": "Mitte-Landstraße",
        "short_name": "Landstraße",
        "long_name": "Bahnhof Wien Mitte",
        "line": "ViennaUBahnU4",
        "order": 75
      },
      "id": 68
    },
    {
      "type": "Feature",
      "geometry": { "type": "Point", "coordinates": [16.379681, 48.202847] },
      "properties": {
        "id": 69,
        "name": "Stadtpark",
        "line": "ViennaUBahnU4",
        "order": 85
      },
      "id": 69
    },
    {
      "type": "Feature",
      "geometry": { "type": "Point", "coordinates": [16.369652, 48.200379] },
      "properties": {
        "id": 70,
        "name": "Karlsplatz",
        "line": "ViennaUBahnU4",
        "order": 95
      },
      "id": 70
    },
    {
      "type": "Feature",
      "geometry": { "type": "Point", "coordinates": [16.358096, 48.196625] },
      "properties": {
        "id": 71,
        "name": "Kettenbrückengasse",
        "line": "ViennaUBahnU4",
        "order": 107
      },
      "id": 71
    },
    {
      "type": "Feature",
      "geometry": { "type": "Point", "coordinates": [16.354312, 48.192147] },
      "properties": {
        "id": 72,
        "name": "Pilgramgasse",
        "line": "ViennaUBahnU4",
        "order": 122
      },
      "id": 72
    },
    {
      "type": "Feature",
      "geometry": { "type": "Point", "coordinates": [16.343059, 48.188475] },
      "properties": {
        "id": 73,
        "name": "Margaretengürtel",
        "line": "ViennaUBahnU4",
        "order": 134
      },
      "id": 73
    },
    {
      "type": "Feature",
      "geometry": { "type": "Point", "coordinates": [16.334953, 48.184867] },
      "properties": {
        "id": 74,
        "name": "Längenfeldgasse",
        "line": "ViennaUBahnU4",
        "order": 143
      },
      "id": 74
    },
    {
      "type": "Feature",
      "geometry": { "type": "Point", "coordinates": [16.327849, 48.18359] },
      "properties": {
        "id": 75,
        "name": "Meidling Hauptstraße",
        "line": "ViennaUBahnU4",
        "order": 151
      },
      "id": 75
    },
    {
      "type": "Feature",
      "geometry": { "type": "Point", "coordinates": [16.31888, 48.186052] },
      "properties": {
        "id": 76,
        "name": "Schönbrunn",
        "line": "ViennaUBahnU4",
        "order": 158
      },
      "id": 76
    },
    {
      "type": "Feature",
      "geometry": { "type": "Point", "coordinates": [16.304896, 48.187534] },
      "properties": {
        "id": 77,
        "name": "Hietzing",
        "line": "ViennaUBahnU4",
        "order": 165
      },
      "id": 77
    },
    {
      "type": "Feature",
      "geometry": { "type": "Point", "coordinates": [16.295836, 48.189386] },
      "properties": {
        "id": 78,
        "name": "Braunschweiggasse",
        "line": "ViennaUBahnU4",
        "order": 171
      },
      "id": 78
    },
    {
      "type": "Feature",
      "geometry": { "type": "Point", "coordinates": [16.286231, 48.191071] },
      "properties": {
        "id": 79,
        "name": "Unter St. Veit",
        "line": "ViennaUBahnU4",
        "order": 177
      },
      "id": 79
    },
    {
      "type": "Feature",
      "geometry": { "type": "Point", "coordinates": [16.276072, 48.192235] },
      "properties": {
        "id": 80,
        "name": "Ober St. Veit",
        "line": "ViennaUBahnU4",
        "order": 185
      },
      "id": 80
    },
    {
      "type": "Feature",
      "geometry": { "type": "Point", "coordinates": [16.260781, 48.19706] },
      "properties": {
        "id": 81,
        "name": "Hütteldorf",
        "line": "ViennaUBahnU4",
        "order": 203
      },
      "id": 81
    },
    {
      "type": "Feature",
      "geometry": { "type": "Point", "coordinates": [16.309696, 48.130135] },
      "properties": {
        "id": 95,
        "name": "Siebenhirten",
        "line": "ViennaUBahnU6",
        "order": 0
      },
      "id": 95
    },
    {
      "type": "Feature",
      "geometry": { "type": "Point", "coordinates": [16.313253, 48.136682] },
      "properties": {
        "id": 96,
        "name": "Perfektastraße",
        "line": "ViennaUBahnU6",
        "order": 1
      },
      "id": 96
    },
    {
      "type": "Feature",
      "geometry": { "type": "Point", "coordinates": [16.316496, 48.142299] },
      "properties": {
        "id": 97,
        "name": "Erlaaer Straße",
        "line": "ViennaUBahnU6",
        "order": 2
      },
      "id": 97
    },
    {
      "type": "Feature",
      "geometry": { "type": "Point", "coordinates": [16.31681, 48.15072] },
      "properties": {
        "id": 98,
        "name": "Alterlaa",
        "line": "ViennaUBahnU6",
        "order": 3
      },
      "id": 98
    },
    {
      "type": "Feature",
      "geometry": { "type": "Point", "coordinates": [16.324428, 48.161057] },
      "properties": {
        "id": 99,
        "name": "Am Schöpfwerk",
        "line": "ViennaUBahnU6",
        "order": 4
      },
      "id": 99
    },
    {
      "type": "Feature",
      "geometry": { "type": "Point", "coordinates": [16.32759, 48.164718] },
      "properties": {
        "id": 100,
        "name": "Tscherttegasse",
        "line": "ViennaUBahnU6",
        "order": 5
      },
      "id": 100
    },
    {
      "type": "Feature",
      "geometry": { "type": "Point", "coordinates": [16.331435, 48.173526] },
      "properties": {
        "id": 101,
        "name": "Meidling",
        "long_name": "Philadelphiabrücke",
        "short_name": "Bahnhof Meidling",
        "line": "ViennaUBahnU6",
        "order": 6
      },
      "id": 101
    },
    {
      "type": "Feature",
      "geometry": { "type": "Point", "coordinates": [16.331129, 48.180816] },
      "properties": {
        "id": 102,
        "name": "Niederhofstraße",
        "line": "ViennaUBahnU6",
        "order": 7
      },
      "id": 102
    },
    {
      "type": "Feature",
      "geometry": { "type": "Point", "coordinates": [16.334866, 48.184918] },
      "properties": {
        "id": 103,
        "name": "Längenfeldgasse",
        "line": "ViennaUBahnU6",
        "order": 8
      },
      "id": 103
    },
    {
      "type": "Feature",
      "geometry": { "type": "Point", "coordinates": [16.337534, 48.19083] },
      "properties": {
        "id": 104,
        "name": "Gumpendorfer Straße",
        "line": "ViennaUBahnU6",
        "order": 9
      },
      "id": 104
    },
    {
      "type": "Feature",
      "geometry": { "type": "Point", "coordinates": [16.336438, 48.196926] },
      "properties": {
        "id": 105,
        "name": "Westbahnhof",
        "line": "ViennaUBahnU6",
        "order": 10
      },
      "id": 105
    },
    {
      "type": "Feature",
      "geometry": { "type": "Point", "coordinates": [16.337274, 48.20329] },
      "properties": {
        "id": 106,
        "name": "Burggasse-Stadthalle",
        "line": "ViennaUBahnU6",
        "order": 11
      },
      "id": 106
    },
    {
      "type": "Feature",
      "geometry": { "type": "Point", "coordinates": [16.337876, 48.207679] },
      "properties": {
        "id": 107,
        "name": "Thaliastraße",
        "line": "ViennaUBahnU6",
        "order": 12
      },
      "id": 107
    },
    {
      "type": "Feature",
      "geometry": { "type": "Point", "coordinates": [16.339142, 48.21169] },
      "properties": {
        "id": 108,
        "name": "Josefstädter Straße",
        "line": "ViennaUBahnU6",
        "order": 13
      },
      "id": 108
    },
    {
      "type": "Feature",
      "geometry": { "type": "Point", "coordinates": [16.341756, 48.216838] },
      "properties": {
        "id": 109,
        "name": "Alser Straße",
        "line": "ViennaUBahnU6",
        "order": 14
      },
      "id": 109
    },
    {
      "type": "Feature",
      "geometry": { "type": "Point", "coordinates": [16.34429, 48.221315] },
      "properties": {
        "id": 110,
        "name": "Michelbeuern-AKH",
        "line": "ViennaUBahnU6",
        "order": 15
      },
      "id": 110
    },
    {
      "type": "Feature",
      "geometry": { "type": "Point", "coordinates": [16.349563, 48.225666] },
      "properties": {
        "id": 111,
        "name": "Währinger Str.-Volksoper",
        "line": "ViennaUBahnU6",
        "order": 16
      },
      "id": 111
    },
    {
      "type": "Feature",
      "geometry": { "type": "Point", "coordinates": [16.352374, 48.231279] },
      "properties": {
        "id": 112,
        "name": "Nußdorfer Straße",
        "line": "ViennaUBahnU6",
        "order": 17
      },
      "id": 112
    },
    {
      "type": "Feature",
      "geometry": { "type": "Point", "coordinates": [16.358097, 48.235569] },
      "properties": {
        "id": 113,
        "name": "Spittelau",
        "line": "ViennaUBahnU6",
        "order": 18
      },
      "id": 113
    },
    {
      "type": "Feature",
      "geometry": { "type": "Point", "coordinates": [16.368697, 48.235252] },
      "properties": {
        "id": 114,
        "name": "Jägerstraße",
        "line": "ViennaUBahnU6",
        "order": 19
      },
      "id": 114
    },
    {
      "type": "Feature",
      "geometry": { "type": "Point", "coordinates": [16.380043, 48.23725] },
      "properties": {
        "id": 115,
        "name": "Dresdner Straße",
        "line": "ViennaUBahnU6",
        "order": 20
      },
      "id": 115
    },
    {
      "type": "Feature",
      "geometry": { "type": "Point", "coordinates": [16.385217, 48.242043] },
      "properties": {
        "id": 116,
        "name": "Handelskai",
        "line": "ViennaUBahnU6",
        "order": 21
      },
      "id": 116
    },
    {
      "type": "Feature",
      "geometry": { "type": "Point", "coordinates": [16.394793, 48.246416] },
      "properties": {
        "id": 117,
        "name": "Neue Donau",
        "line": "ViennaUBahnU6",
        "order": 22
      },
      "id": 117
    },
    {
      "type": "Feature",
      "geometry": { "type": "Point", "coordinates": [16.399797, 48.256417] },
      "properties": {
        "id": 118,
        "name": "Floridsdorf",
        "line": "ViennaUBahnU6",
        "order": 23
      },
      "id": 118
    },
    {
      "type": "Feature",
      "geometry": { "type": "Point", "coordinates": [16.361955, 48.214009] },
      "properties": {
        "id": 119,
        "name": "Schottentor U",
        "line": "ViennaStrassenbahn38",
        "order": 0
      },
      "id": 119
    },
    {
      "type": "Feature",
      "geometry": { "type": "Point", "coordinates": [16.359419, 48.217075] },
      "properties": {
        "id": 120,
        "name": "Schwarzspanierstraße",
        "line": "ViennaStrassenbahn38",
        "order": 14
      },
      "id": 120
    },
    {
      "type": "Feature",
      "geometry": { "type": "Point", "coordinates": [16.353641, 48.222039] },
      "properties": {
        "id": 121,
        "name": "Spitalgasse",
        "line": "ViennaStrassenbahn38",
        "order": 26
      },
      "id": 121
    },
    {
      "type": "Feature",
      "geometry": { "type": "Point", "coordinates": [16.355089, 48.22564] },
      "properties": {
        "id": 122,
        "name": "Nußdorfer Straße/Alserbachstraße",
        "line": "ViennaStrassenbahn38",
        "order": 44
      },
      "id": 122
    },
    {
      "type": "Feature",
      "geometry": { "type": "Point", "coordinates": [16.354861, 48.22796] },
      "properties": {
        "id": 123,
        "name": "Canisiusgasse",
        "line": "ViennaStrassenbahn38",
        "order": 52
      },
      "id": 123
    },
    {
      "type": "Feature",
      "geometry": { "type": "Point", "coordinates": [16.354281, 48.231535] },
      "properties": {
        "id": 124,
        "name": "Nußdorfer Straße U",
        "line": "ViennaStrassenbahn38",
        "order": 64
      },
      "id": 124
    },
    {
      "type": "Feature",
      "geometry": { "type": "Point", "coordinates": [16.353389, 48.233008] },
      "properties": {
        "id": 125,
        "name": "Glatzgasse",
        "line": "ViennaStrassenbahn38",
        "order": 70
      },
      "id": 125
    },
    {
      "type": "Feature",
      "geometry": { "type": "Point", "coordinates": [16.349058, 48.236729] },
      "properties": {
        "id": 126,
        "name": "Hardtgasse",
        "line": "ViennaStrassenbahn38",
        "order": 86
      },
      "id": 126
    },
    {
      "type": "Feature",
      "geometry": { "type": "Point", "coordinates": [16.349307, 48.238884] },
      "properties": {
        "id": 127,
        "name": "Gatterburggasse",
        "line": "ViennaStrassenbahn38",
        "order": 92
      },
      "id": 127
    },
    {
      "type": "Feature",
      "geometry": { "type": "Point", "coordinates": [16.348316, 48.242895] },
      "properties": {
        "id": 128,
        "name": "Silbergasse",
        "line": "ViennaStrassenbahn38",
        "order": 110
      },
      "id": 128
    },
    {
      "type": "Feature",
      "geometry": { "type": "Point", "coordinates": [16.344363, 48.244743] },
      "properties": {
        "id": 129,
        "name": "Oberdöbling S",
        "line": "ViennaStrassenbahn38",
        "order": 125
      },
      "id": 129
    },
    {
      "type": "Feature",
      "geometry": { "type": "Point", "coordinates": [16.342496, 48.246364] },
      "properties": {
        "id": 130,
        "name": "Sieveringer Straße",
        "line": "ViennaStrassenbahn38",
        "order": 134
      },
      "id": 130
    },
    {
      "type": "Feature",
      "geometry": { "type": "Point", "coordinates": [16.341854, 48.248912] },
      "properties": {
        "id": 131,
        "name": "Paradisgasse",
        "line": "ViennaStrassenbahn38",
        "order": 138
      },
      "id": 131
    },
    {
      "type": "Feature",
      "geometry": { "type": "Point", "coordinates": [16.34179, 48.252472] },
      "properties": {
        "id": 132,
        "name": "An den langen Lüssen",
        "line": "ViennaStrassenbahn38",
        "order": 147
      },
      "id": 132
    },
    {
      "type": "Feature",
      "geometry": { "type": "Point", "coordinates": [16.341942, 48.255293] },
      "properties": {
        "id": 133,
        "name": "Grinzing",
        "line": "ViennaStrassenbahn38",
        "order": 173
      },
      "id": 133
    },
    {
      "type": "Feature",
      "geometry": { "type": "Point", "coordinates": [16.361989, 48.213997] },
      "properties": {
        "id": 134,
        "name": "Schottentor U",
        "line": "ViennaStrassenbahn44",
        "order": 0
      },
      "id": 134
    },
    {
      "type": "Feature",
      "geometry": { "type": "Point", "coordinates": [16.356854, 48.214527] },
      "properties": {
        "id": 135,
        "name": "Landesgerichtsstraße",
        "line": "ViennaStrassenbahn44",
        "order": 16
      },
      "id": 135
    },
    {
      "type": "Feature",
      "geometry": { "type": "Point", "coordinates": [16.351385, 48.214967] },
      "properties": {
        "id": 136,
        "name": "Lange Gasse",
        "line": "ViennaStrassenbahn44",
        "order": 25
      },
      "id": 136
    },
    {
      "type": "Feature",
      "geometry": { "type": "Point", "coordinates": [16.349178, 48.215165] },
      "properties": {
        "id": 137,
        "name": "Skodagasse",
        "line": "ViennaStrassenbahn44",
        "order": 31
      },
      "id": 137
    },
    {
      "type": "Feature",
      "geometry": { "type": "Point", "coordinates": [16.346308, 48.215422] },
      "properties": {
        "id": 138,
        "name": "Brünnlbadgasse",
        "line": "ViennaStrassenbahn44",
        "order": 35
      },
      "id": 138
    },
    {
      "type": "Feature",
      "geometry": { "type": "Point", "coordinates": [16.341657, 48.215204] },
      "properties": {
        "id": 139,
        "name": "Hernalser Gürtel",
        "line": "ViennaStrassenbahn44",
        "order": 47
      },
      "id": 139
    },
    {
      "type": "Feature",
      "geometry": { "type": "Point", "coordinates": [16.336143, 48.214788] },
      "properties": {
        "id": 140,
        "name": "Yppengasse",
        "line": "ViennaStrassenbahn44",
        "order": 54
      },
      "id": 140
    },
    {
      "type": "Feature",
      "geometry": { "type": "Point", "coordinates": [16.329465, 48.21386] },
      "properties": {
        "id": 141,
        "name": "Frauengasse",
        "line": "ViennaStrassenbahn44",
        "order": 62
      },
      "id": 141
    },
    {
      "type": "Feature",
      "geometry": { "type": "Point", "coordinates": [16.326936, 48.213388] },
      "properties": {
        "id": 142,
        "name": "Johann-Nepomuk-Berger-Platz",
        "line": "ViennaStrassenbahn44",
        "order": 64
      },
      "id": 142
    },
    {
      "type": "Feature",
      "geometry": { "type": "Point", "coordinates": [16.319443, 48.21351] },
      "properties": {
        "id": 143,
        "name": "Familienplatz",
        "line": "ViennaStrassenbahn44",
        "order": 81
      },
      "id": 143
    },
    {
      "type": "Feature",
      "geometry": { "type": "Point", "coordinates": [16.315012, 48.213312] },
      "properties": {
        "id": 144,
        "name": "Redtenbachergasse",
        "line": "ViennaStrassenbahn44",
        "order": 90
      },
      "id": 144
    },
    {
      "type": "Feature",
      "geometry": { "type": "Point", "coordinates": [16.311137, 48.213686] },
      "properties": {
        "id": 145,
        "name": "Weinheimergasse",
        "line": "ViennaStrassenbahn44",
        "order": 95
      },
      "id": 145
    },
    {
      "type": "Feature",
      "geometry": { "type": "Point", "coordinates": [16.308705, 48.213806] },
      "properties": {
        "id": 146,
        "name": "Johannes-Krawarik-Gasse",
        "line": "ViennaStrassenbahn44",
        "order": 98
      },
      "id": 146
    },
    {
      "type": "Feature",
      "geometry": { "type": "Point", "coordinates": [16.305788, 48.214384] },
      "properties": {
        "id": 147,
        "name": "Maroltingergasse",
        "line": "ViennaStrassenbahn44",
        "order": 116
      },
      "id": 147
    }
  ],
  "properties": {
    "totalStations": 134,
    "stationsPerLine": {
      "ViennaUBahnU1": 24,
      "ViennaUBahnU2": 20,
      "ViennaUBahnU3": 21,
      "ViennaUBahnU4": 20,
      "ViennaUBahnU6": 24,
      "ViennaStrassenbahn38": 15,
      "ViennaStrassenbahn44": 14
    }
  }
}
