{"type":"FeatureCollection","features":[{"type":"Feature","geometry":{"type":"Point","coordinates":[127.046111,37.738056]},"properties":{"id":1,"name":"의정부 Uijeongbu","short_name":"Uijeongbu","long_name":"의정부","line":"SeoulSubway1Hoseon","order":0},"id":1},{"type":"Feature","geometry":{"type":"Point","coordinates":[127.060833,37.948611]},"properties":{"id":148,"name":"소요산 Soyosan","short_name":"Soyosan","long_name":"소요산","line":"SeoulSubway1Hoseon","order":0},"id":148},{"type":"Feature","geometry":{"type":"Point","coordinates":[126.846667,37.531667]},"properties":{"id":382,"name":"까치산 Kkachisan","short_name":"Kkachisan","long_name":"까치산","line":"SeoulSubway2Hoseon","order":0},"id":382},{"type":"Feature","geometry":{"type":"Point","coordinates":[127.055961,37.544581]},"properties":{"id":387,"name":"성수 Seongsu","short_name":"Seongsu","long_name":"성수","line":"SeoulSubway2Hoseon","order":0},"id":387},{"type":"Feature","geometry":{"type":"Point","coordinates":[126.747496,37.676106]},"properties":{"id":436,"name":"대화 Daehwa","short_name":"Daehwa","long_name":"대화","line":"SeoulSubway3Hoseon","order":0},"id":436},{"type":"Feature","geometry":{"type":"Point","coordinates":[127.047833,37.652775]},"properties":{"id":480,"name":"창동 Chang-dong","short_name":"Chang-dong","long_name":"창동","line":"SeoulSubway4Hoseon","order":0},"id":480},{"type":"Feature","geometry":{"type":"Point","coordinates":[127.203157,37.72047]},"properties":{"id":522,"name":"진접 Jinjeop","short_name":"Jinjeop","long_name":"진접","line":"SeoulSubway4Hoseon","order":0},"id":522},{"type":"Feature","geometry":{"type":"Point","coordinates":[126.812741,37.577446]},"properties":{"id":627,"name":"방화 Banghwa","short_name":"Banghwa","long_name":"방화","line":"SeoulSubway5Hoseon","order":0},"id":627},{"type":"Feature","geometry":{"type":"Point","coordinates":[126.915577,37.598605]},"properties":{"id":722,"name":"응암 Eungam","short_name":"Eungam","long_name":"응암","line":"SeoulSubway6Hoseon","order":0},"id":722},{"type":"Feature","geometry":{"type":"Point","coordinates":[126.823039,37.492031]},"properties":{"id":803,"name":"온수 Onsu","short_name":"Onsu","long_name":"온수","line":"SeoulSubway7Hoseon","order":0},"id":803},{"type":"Feature","geometry":{"type":"Point","coordinates":[127.053196,37.700109]},"properties":{"id":815,"name":"장암 Jangam","short_name":"Jangam","long_name":"장암","line":"SeoulSubway7Hoseon","order":0},"id":815},{"type":"Feature","geometry":{"type":"Point","coordinates":[127.127574,37.550232]},"properties":{"id":868,"name":"암사 Amsa","short_name":"Amsa","long_name":"암사","line":"SeoulSubway8Hoseon","order":0},"id":868},{"type":"Feature","geometry":{"type":"Point","coordinates":[127.148739,37.529191]},"properties":{"id":886,"name":"중앙보훈병원 VHS Medical Center","short_name":"VHS Medical Center","long_name":"중앙보훈병원","line":"SeoulSubway9Hoseon","order":0},"id":886},{"type":"Feature","geometry":{"type":"Point","coordinates":[127.111137,37.394762]},"properties":{"id":924,"name":"판교(판교테크노밸리) Pangyo(Techno Valley)","short_name":") Pangyo(Techno Valley)","long_name":"판교(판교테크노밸리","line":"SeoulMTRGyeonggangseon","order":0},"id":924},{"type":"Feature","geometry":{"type":"Point","coordinates":[126.788047,37.854619]},"properties":{"id":935,"name":"문산 Munsan","short_name":"Munsan","long_name":"문산","line":"SeoulMTRGyeongyijungangseon","order":0},"id":935},{"type":"Feature","geometry":{"type":"Point","coordinates":[127.04823,37.58059]},"properties":{"id":1051,"name":"청량리 Cheongnyangni","short_name":"Cheongnyangni","long_name":"청량리","line":"SeoulMTRGyeongcunseon","order":0},"id":1051},{"type":"Feature","geometry":{"type":"Point","coordinates":[127.061389,37.623056]},"properties":{"id":1075,"name":"광운대 Kwangwoon University","short_name":"Kwangwoon University","long_name":"광운대","line":"SeoulMTRGyeongcunseon","order":0},"id":1075},{"type":"Feature","geometry":{"type":"Point","coordinates":[126.972135,37.556228]},"properties":{"id":1118,"name":"서울역 Seoul Station","short_name":"Seoul Station","long_name":"서울역","line":"SeoulAirportRailroadGonghangceoldo","order":0},"id":1118},{"type":"Feature","geometry":{"type":"Point","coordinates":[127.038632,37.56131]},"properties":{"id":1132,"name":"왕십리 Wangsimni","short_name":"Wangsimni","long_name":"왕십리","line":"SeoulMTRSuinbundangseon","order":0},"id":1132},{"type":"Feature","geometry":{"type":"Point","coordinates":[127.04823,37.58059]},"properties":{"id":1156,"name":"청량리 Cheongnyangni","short_name":"Cheongnyangni","long_name":"청량리","line":"SeoulMTRSuinbundangseon","order":0},"id":1156},{"type":"Feature","geometry":{"type":"Point","coordinates":[127.020114,37.516334]},"properties":{"id":1219,"name":"신사 Sinsa","short_name":"Sinsa","long_name":"신사","line":"SeoulMTRSinbundangseon","order":0},"id":1219},{"type":"Feature","geometry":{"type":"Point","coordinates":[126.73578,37.571449]},"properties":{"id":1235,"name":"계양 Gyeyang","short_name":"Gyeyang","long_name":"계양","line":"SeoulIncheonMetroInceon1Hoseon","order":0},"id":1235},{"type":"Feature","geometry":{"type":"Point","coordinates":[126.627839,37.594988]},"properties":{"id":1265,"name":"검단오류 Geomdan Oryu","short_name":"Geomdan Oryu","long_name":"검단오류","line":"CM_SeoulIncheonMetro2_inceon2hoseon","order":0},"id":1265},{"type":"Feature","geometry":{"type":"Point","coordinates":[126.801292,37.562384]},"properties":{"id":1292,"name":"김포공항 Gimpo Intl. Airport","short_name":"Gimpo Intl. Airport","long_name":"김포공항","line":"CM_SeoulLightRailTransit_gimpogoldeurain","order":0},"id":1292},{"type":"Feature","geometry":{"type":"Point","coordinates":[126.79545,37.482731]},"properties":{"id":1311,"name":"소사 Sosa","short_name":"Sosa","long_name":"소사","line":"SeoulLightRailTransitSeohaeseon","order":0},"id":1311},{"type":"Feature","geometry":{"type":"Point","coordinates":[126.929399,37.517097]},"properties":{"id":1323,"name":"샛강 Saetgang","short_name":"Saetgang","long_name":"샛강","line":"SeoulLightRailTransitSinrimseon","order":0},"id":1323},{"type":"Feature","geometry":{"type":"Point","coordinates":[127.219571,37.285352]},"properties":{"id":1334,"name":"전대·에버랜드 Jeondae·Everland","short_name":"Jeondae·Everland","long_name":"전대·에버랜드","line":"SeoulLightRailTransitEverline","order":0},"id":1334},{"type":"Feature","geometry":{"type":"Point","coordinates":[127.024634,37.576048]},"properties":{"id":1349,"name":"신설동 Sinseol-dong","short_name":"Sinseol-dong","long_name":"신설동","line":"SeoulLightRailTransitUisinseolgyeongjeonceol","order":0},"id":1349},{"type":"Feature","geometry":{"type":"Point","coordinates":[127.052943,37.72702]},"properties":{"id":1362,"name":"발곡 Balgok","short_name":"Balgok","long_name":"발곡","line":"SeoulLightRailTransitUijeongbu","order":0},"id":1362},{"type":"Feature","geometry":{"type":"Point","coordinates":[127.128328,37.502124]},"properties":{"id":479,"name":"오금 Ogeum","short_name":"Ogeum","long_name":"오금","line":"SeoulSubway3Hoseon","order":782},"id":479},{"type":"Feature","geometry":{"type":"Point","coordinates":[127.124469,37.495951]},"properties":{"id":478,"name":"경찰병원 National Police Hospital","short_name":"National Police Hospital","long_name":"경찰병원","line":"SeoulSubway3Hoseon","order":765},"id":478},{"type":"Feature","geometry":{"type":"Point","coordinates":[127.117758,37.492243]},"properties":{"id":477,"name":"가락시장 Garak Market","short_name":"Garak Market","long_name":"가락시장","line":"SeoulSubway3Hoseon","order":746},"id":477},{"type":"Feature","geometry":{"type":"Point","coordinates":[127.101903,37.487386]},"properties":{"id":476,"name":"수서 Suseo","short_name":"Suseo","long_name":"수서","line":"SeoulSubway3Hoseon","order":731},"id":476},{"type":"Feature","geometry":{"type":"Point","coordinates":[127.084392,37.483683]},"properties":{"id":475,"name":"일원 Irwon","short_name":"Irwon","long_name":"일원","line":"SeoulSubway3Hoseon","order":702},"id":475},{"type":"Feature","geometry":{"type":"Point","coordinates":[127.079576,37.493527]},"properties":{"id":474,"name":"대청 Daecheong","short_name":"Daecheong","long_name":"대청","line":"SeoulSubway3Hoseon","order":686},"id":474},{"type":"Feature","geometry":{"type":"Point","coordinates":[127.070583,37.496687]},"properties":{"id":473,"name":"학여울 Hangnyeoul","short_name":"Hangnyeoul","long_name":"학여울","line":"SeoulSubway3Hoseon","order":671},"id":473},{"type":"Feature","geometry":{"type":"Point","coordinates":[127.063617,37.494605]},"properties":{"id":472,"name":"대치 Daechi","short_name":"Daechi","long_name":"대치","line":"SeoulSubway3Hoseon","order":663},"id":472},{"type":"Feature","geometry":{"type":"Point","coordinates":[127.055461,37.49091]},"properties":{"id":471,"name":"도곡 Dogok","short_name":"Dogok","long_name":"도곡","line":"SeoulSubway3Hoseon","order":650},"id":471},{"type":"Feature","geometry":{"type":"Point","coordinates":[127.04677,37.486946]},"properties":{"id":470,"name":"매봉 Maebong","short_name":"Maebong","long_name":"매봉","line":"SeoulSubway3Hoseon","order":641},"id":470},{"type":"Feature","geometry":{"type":"Point","coordinates":[127.033903,37.484472]},"properties":{"id":469,"name":"양재(서초구청) Yangjae","short_name":") Yangjae","long_name":"양재(서초구청","line":"SeoulSubway3Hoseon","order":628},"id":469},{"type":"Feature","geometry":{"type":"Point","coordinates":[127.016251,37.485037]},"properties":{"id":468,"name":"남부터미널(예술의전당) Nambu Bus Terminal","short_name":") Nambu Bus Terminal","long_name":"남부터미널(예술의전당","line":"SeoulSubway3Hoseon","order":604},"id":468},{"type":"Feature","geometry":{"type":"Point","coordinates":[127.013829,37.492881]},"properties":{"id":467,"name":"교대(법원·검찰청) Seoul National University of Education","short_name":") Seoul National University of Education","long_name":"교대(법원·검찰청","line":"SeoulSubway3Hoseon","order":591},"id":467},{"type":"Feature","geometry":{"type":"Point","coordinates":[127.00493,37.504909]},"properties":{"id":466,"name":"고속터미널 Express Bus Terminal","short_name":"Express Bus Terminal","long_name":"고속터미널","line":"SeoulSubway3Hoseon","order":563},"id":466},{"type":"Feature","geometry":{"type":"Point","coordinates":[127.01122,37.512759]},"properties":{"id":465,"name":"잠원 Jamwon","short_name":"Jamwon","long_name":"잠원","line":"SeoulSubway3Hoseon","order":541},"id":465},{"type":"Feature","geometry":{"type":"Point","coordinates":[127.020116,37.516331]},"properties":{"id":464,"name":"신사 Sinsa","short_name":"Sinsa","long_name":"신사","line":"SeoulSubway3Hoseon","order":526},"id":464},{"type":"Feature","geometry":{"type":"Point","coordinates":[127.028456,37.52707]},"properties":{"id":463,"name":"압구정 Apgujeong","short_name":"Apgujeong","long_name":"압구정","line":"SeoulSubway3Hoseon","order":500},"id":463},{"type":"Feature","geometry":{"type":"Point","coordinates":[127.017287,37.54169]},"properties":{"id":462,"name":"옥수 Oksu","short_name":"Oksu","long_name":"옥수","line":"SeoulSubway3Hoseon","order":479},"id":462},{"type":"Feature","geometry":{"type":"Point","coordinates":[127.015851,37.548028]},"properties":{"id":461,"name":"금호 Geumho","short_name":"Geumho","long_name":"금호","line":"SeoulSubway3Hoseon","order":467},"id":461},{"type":"Feature","geometry":{"type":"Point","coordinates":[127.010545,37.554869]},"properties":{"id":460,"name":"약수 Yaksu","short_name":"Yaksu","long_name":"약수","line":"SeoulSubway3Hoseon","order":455},"id":460},{"type":"Feature","geometry":{"type":"Point","coordinates":[127.005596,37.559059]},"properties":{"id":459,"name":"동대입구 Dongguk Univ.","short_name":"Dongguk Univ.","long_name":"동대입구","line":"SeoulSubway3Hoseon","order":442},"id":459},{"type":"Feature","geometry":{"type":"Point","coordinates":[126.994079,37.561437]},"properties":{"id":458,"name":"충무로 Chungmuro","short_name":"Chungmuro","long_name":"충무로","line":"SeoulSubway3Hoseon","order":430},"id":458},{"type":"Feature","geometry":{"type":"Point","coordinates":[126.992599,37.566373]},"properties":{"id":457,"name":"을지로3가 Euljiro 3(sam)-ga","short_name":"Euljiro 3(sam)-ga","long_name":"을지로3가","line":"SeoulSubway3Hoseon","order":421},"id":457},{"type":"Feature","geometry":{"type":"Point","coordinates":[126.992113,37.570426]},"properties":{"id":456,"name":"종로3가 Jongno 3(sam)-ga","short_name":"Jongno 3(sam)-ga","long_name":"종로3가","line":"SeoulSubway3Hoseon","order":417},"id":456},{"type":"Feature","geometry":{"type":"Point","coordinates":[126.985431,37.576495]},"properties":{"id":455,"name":"안국 Anguk","short_name":"Anguk","long_name":"안국","line":"SeoulSubway3Hoseon","order":402},"id":455},{"type":"Feature","geometry":{"type":"Point","coordinates":[126.973536,37.5758]},"properties":{"id":454,"name":"경복궁(정부서울청사) Gyeongbokgung Palace","short_name":") Gyeongbokgung Palace","long_name":"경복궁(정부서울청사","line":"SeoulSubway3Hoseon","order":386},"id":454},{"type":"Feature","geometry":{"type":"Point","coordinates":[126.957752,37.574574]},"properties":{"id":453,"name":"독립문 Dongnimmun","short_name":"Dongnimmun","long_name":"독립문","line":"SeoulSubway3Hoseon","order":354},"id":453},{"type":"Feature","geometry":{"type":"Point","coordinates":[126.950321,37.582308]},"properties":{"id":452,"name":"무악재 Muakjae","short_name":"Muakjae","long_name":"무악재","line":"SeoulSubway3Hoseon","order":334},"id":452},{"type":"Feature","geometry":{"type":"Point","coordinates":[126.943738,37.589068]},"properties":{"id":451,"name":"홍제 Hongje","short_name":"Hongje","long_name":"홍제","line":"SeoulSubway3Hoseon","order":320},"id":451},{"type":"Feature","geometry":{"type":"Point","coordinates":[126.935744,37.600923]},"properties":{"id":450,"name":"녹번 Nokbeon","short_name":"Nokbeon","long_name":"녹번","line":"SeoulSubway3Hoseon","order":297},"id":450},{"type":"Feature","geometry":{"type":"Point","coordinates":[126.929822,37.610554]},"properties":{"id":449,"name":"불광 Bulgwang","short_name":"Bulgwang","long_name":"불광","line":"SeoulSubway3Hoseon","order":283},"id":449},{"type":"Feature","geometry":{"type":"Point","coordinates":[126.921041,37.619231]},"properties":{"id":448,"name":"연신내 Yeonsinnae","short_name":"Yeonsinnae","long_name":"연신내","line":"SeoulSubway3Hoseon","order":271},"id":448},{"type":"Feature","geometry":{"type":"Point","coordinates":[126.918827,37.636763]},"properties":{"id":447,"name":"구파발 Gupabal","short_name":"Gupabal","long_name":"구파발","line":"SeoulSubway3Hoseon","order":247},"id":447},{"type":"Feature","geometry":{"type":"Point","coordinates":[126.913922,37.648058]},"properties":{"id":446,"name":"지축 Jichuk","short_name":"Jichuk","long_name":"지축","line":"SeoulSubway3Hoseon","order":220},"id":446},{"type":"Feature","geometry":{"type":"Point","coordinates":[127.129832,37.433839]},"properties":{"id":885,"name":"모란 Moran","short_name":"Moran","long_name":"모란","line":"SeoulSubway8Hoseon","order":217},"id":885},{"type":"Feature","geometry":{"type":"Point","coordinates":[126.895492,37.653095]},"properties":{"id":445,"name":"삼송 Samsong","short_name":"Samsong","long_name":"삼송","line":"SeoulSubway3Hoseon","order":206},"id":445},{"type":"Feature","geometry":{"type":"Point","coordinates":[126.884849,37.416569]},"properties":{"id":216,"name":"광명 Gwangmyeong","short_name":"Gwangmyeong","long_name":"광명","line":"SeoulSubway1Hoseon","order":205},"id":216},{"type":"Feature","geometry":{"type":"Point","coordinates":[127.140722,37.437428]},"properties":{"id":884,"name":"수진 Sujin","short_name":"Sujin","long_name":"수진","line":"SeoulSubway8Hoseon","order":198},"id":884},{"type":"Feature","geometry":{"type":"Point","coordinates":[127.147562,37.440921]},"properties":{"id":883,"name":"신흥 Sinheung","short_name":"Sinheung","long_name":"신흥","line":"SeoulSubway8Hoseon","order":189},"id":883},{"type":"Feature","geometry":{"type":"Point","coordinates":[126.872644,37.650663]},"properties":{"id":444,"name":"원흥 Wonheung","short_name":"Wonheung","long_name":"원흥","line":"SeoulSubway3Hoseon","order":181},"id":444},{"type":"Feature","geometry":{"type":"Point","coordinates":[127.156894,37.445195]},"properties":{"id":882,"name":"단대오거리 Dandaeogeori","short_name":"Dandaeogeori","long_name":"단대오거리","line":"SeoulSubway8Hoseon","order":174},"id":882},{"type":"Feature","geometry":{"type":"Point","coordinates":[127.115936,37.275504]},"properties":{"id":1348,"name":"기흥 Giheung","short_name":"Giheung","long_name":"기흥","line":"SeoulLightRailTransitEverline","order":167},"id":1348},{"type":"Feature","geometry":{"type":"Point","coordinates":[127.159872,37.451626]},"properties":{"id":881,"name":"남한산성입구(성남법원·검찰청) Namhansanseong","short_name":") Namhansanseong","long_name":"남한산성입구(성남법원·검찰청","line":"SeoulSubway8Hoseon","order":166},"id":881},{"type":"Feature","geometry":{"type":"Point","coordinates":[127.126083,37.270209]},"properties":{"id":1347,"name":"강남대 Kangnam Univ.","short_name":"Kangnam Univ.","long_name":"강남대","line":"SeoulLightRailTransitEverline","order":158},"id":1347},{"type":"Feature","geometry":{"type":"Point","coordinates":[126.843037,37.653326]},"properties":{"id":443,"name":"원당 Wondang","short_name":"Wondang","long_name":"원당","line":"SeoulSubway3Hoseon","order":150},"id":443},{"type":"Feature","geometry":{"type":"Point","coordinates":[127.149665,37.456925]},"properties":{"id":880,"name":"산성 Sanseong","short_name":"Sanseong","long_name":"산성","line":"SeoulSubway8Hoseon","order":147},"id":880},{"type":"Feature","geometry":{"type":"Point","coordinates":[127.136511,37.26961]},"properties":{"id":1346,"name":"지석 Jiseok","short_name":"Jiseok","long_name":"지석","line":"SeoulLightRailTransitEverline","order":147},"id":1346},{"type":"Feature","geometry":{"type":"Point","coordinates":[127.143686,37.274979]},"properties":{"id":1345,"name":"어정 Eojeong","short_name":"Eojeong","long_name":"어정","line":"SeoulLightRailTransitEverline","order":139},"id":1345},{"type":"Feature","geometry":{"type":"Point","coordinates":[127.139798,37.462432]},"properties":{"id":879,"name":"남위례 Namwirye","short_name":"Namwirye","long_name":"남위례","line":"SeoulSubway8Hoseon","order":134},"id":879},{"type":"Feature","geometry":{"type":"Point","coordinates":[127.152811,37.269063]},"properties":{"id":1344,"name":"동백 Dongbaek","short_name":"Dongbaek","long_name":"동백","line":"SeoulLightRailTransitEverline","order":128},"id":1344},{"type":"Feature","geometry":{"type":"Point","coordinates":[126.832573,37.634608]},"properties":{"id":442,"name":"화정 Hwajeong","short_name":"Hwajeong","long_name":"화정","line":"SeoulSubway3Hoseon","order":123},"id":442},{"type":"Feature","geometry":{"type":"Point","coordinates":[127.159531,37.260813]},"properties":{"id":1343,"name":"초당 Chodang","short_name":"Chodang","long_name":"초당","line":"SeoulLightRailTransitEverline","order":121},"id":1343},{"type":"Feature","geometry":{"type":"Point","coordinates":[127.126755,37.47108]},"properties":{"id":878,"name":"복정 Bokjeong","short_name":"Bokjeong","long_name":"복정","line":"SeoulSubway8Hoseon","order":111},"id":878},{"type":"Feature","geometry":{"type":"Point","coordinates":[127.126186,37.478701]},"properties":{"id":877,"name":"장지 Jangji","short_name":"Jangji","long_name":"장지","line":"SeoulSubway8Hoseon","order":100},"id":877},{"type":"Feature","geometry":{"type":"Point","coordinates":[127.168127,37.24215]},"properties":{"id":1342,"name":"삼가 Samga","short_name":"Samga","long_name":"삼가","line":"SeoulLightRailTransitEverline","order":100},"id":1342},{"type":"Feature","geometry":{"type":"Point","coordinates":[127.178385,37.239366]},"properties":{"id":1341,"name":"시청·용인대 City Hall·Yongin Univ.","short_name":"City Hall·Yongin Univ.","long_name":"시청·용인대","line":"SeoulLightRailTransitEverline","order":95},"id":1341},{"type":"Feature","geometry":{"type":"Point","coordinates":[127.122508,37.485858]},"properties":{"id":876,"name":"문정 Munjeong","short_name":"Munjeong","long_name":"문정","line":"SeoulSubway8Hoseon","order":92},"id":876},{"type":"Feature","geometry":{"type":"Point","coordinates":[126.810699,37.631669]},"properties":{"id":441,"name":"대곡 Daegok","short_name":"Daegok","long_name":"대곡","line":"SeoulSubway3Hoseon","order":86},"id":441},{"type":"Feature","geometry":{"type":"Point","coordinates":[127.190362,37.238096]},"properties":{"id":1340,"name":"명지대 Myongji Univ.","short_name":"Myongji Univ.","long_name":"명지대","line":"SeoulLightRailTransitEverline","order":85},"id":1340},{"type":"Feature","geometry":{"type":"Point","coordinates":[127.11839,37.492883]},"properties":{"id":875,"name":"가락시장 Garak Market","short_name":"Garak Market","long_name":"가락시장","line":"SeoulSubway8Hoseon","order":81},"id":875},{"type":"Feature","geometry":{"type":"Point","coordinates":[127.088755,37.733592]},"properties":{"id":1376,"name":"탑석 Tapseok","short_name":"Tapseok","long_name":"탑석","line":"SeoulLightRailTransitUijeongbu","order":80},"id":1376},{"type":"Feature","geometry":{"type":"Point","coordinates":[127.087191,37.737287]},"properties":{"id":1375,"name":"송산 Songsan","short_name":"Songsan","long_name":"송산","line":"SeoulLightRailTransitUijeongbu","order":78},"id":1375},{"type":"Feature","geometry":{"type":"Point","coordinates":[127.198796,37.237342]},"properties":{"id":1339,"name":"김량장 Gimnyangjang","short_name":"Gimnyangjang","long_name":"김량장","line":"SeoulLightRailTransitEverline","order":77},"id":1339},{"type":"Feature","geometry":{"type":"Point","coordinates":[127.085151,37.742829]},"properties":{"id":1374,"name":"어룡 Eoryong","short_name":"Eoryong","long_name":"어룡","line":"SeoulLightRailTransitUijeongbu","order":75},"id":1374},{"type":"Feature","geometry":{"type":"Point","coordinates":[127.112186,37.499704]},"properties":{"id":874,"name":"송파 Songpa","short_name":"Songpa","long_name":"송파","line":"SeoulSubway8Hoseon","order":71},"id":874},{"type":"Feature","geometry":{"type":"Point","coordinates":[127.209261,37.237926]},"properties":{"id":1338,"name":"운동장·송담대 Stadium·Songdam College","short_name":"Stadium·Songdam College","long_name":"운동장·송담대","line":"SeoulLightRailTransitEverline","order":67},"id":1338},{"type":"Feature","geometry":{"type":"Point","coordinates":[127.083808,37.750501]},"properties":{"id":1373,"name":"곤제 Gonjae","short_name":"Gonjae","long_name":"곤제","line":"SeoulLightRailTransitUijeongbu","order":67},"id":1373},{"type":"Feature","geometry":{"type":"Point","coordinates":[127.106847,37.505566]},"properties":{"id":873,"name":"석촌 Seokchon","short_name":"Seokchon","long_name":"석촌","line":"SeoulSubway8Hoseon","order":65},"id":873},{"type":"Feature","geometry":{"type":"Point","coordinates":[126.616708,37.475883]},"properties":{"id":1218,"name":"인천 Incheon","short_name":"Incheon","long_name":"인천","line":"SeoulMTRSuinbundangseon","order":62},"id":1218},{"type":"Feature","geometry":{"type":"Point","coordinates":[126.616708,37.475883]},"properties":{"id":209,"name":"인천 Incheon","short_name":"Incheon","long_name":"인천","line":"SeoulSubway1Hoseon","order":61},"id":209},{"type":"Feature","geometry":{"type":"Point","coordinates":[126.623853,37.46874]},"properties":{"id":1217,"name":"신포 Sinpo","short_name":"Sinpo","long_name":"신포","line":"SeoulMTRSuinbundangseon","order":61},"id":1217},{"type":"Feature","geometry":{"type":"Point","coordinates":[127.077031,37.753805]},"properties":{"id":1372,"name":"효자 Hyoja","short_name":"Hyoja","long_name":"효자","line":"SeoulLightRailTransitUijeongbu","order":61},"id":1372},{"type":"Feature","geometry":{"type":"Point","coordinates":[126.632864,37.475153]},"properties":{"id":208,"name":"동인천 Dongincheon","short_name":"Dongincheon","long_name":"동인천","line":"SeoulSubway1Hoseon","order":60},"id":208},{"type":"Feature","geometry":{"type":"Point","coordinates":[126.638306,37.460806]},"properties":{"id":1216,"name":"숭의(인하대병원) Sungui","short_name":") Sungui","long_name":"숭의(인하대병원","line":"SeoulMTRSuinbundangseon","order":60},"id":1216},{"type":"Feature","geometry":{"type":"Point","coordinates":[126.642314,37.468675]},"properties":{"id":207,"name":"도원 Dowon","short_name":"Dowon","long_name":"도원","line":"SeoulSubway1Hoseon","order":59},"id":207},{"type":"Feature","geometry":{"type":"Point","coordinates":[126.649619,37.448493]},"properties":{"id":1215,"name":"인하대 Inha Univ.","short_name":"Inha Univ.","long_name":"인하대","line":"SeoulMTRSuinbundangseon","order":59},"id":1215},{"type":"Feature","geometry":{"type":"Point","coordinates":[126.6568,37.466783]},"properties":{"id":206,"name":"제물포 Jemulpo","short_name":"Jemulpo","long_name":"제물포","line":"SeoulSubway1Hoseon","order":58},"id":206},{"type":"Feature","geometry":{"type":"Point","coordinates":[126.657772,37.428514]},"properties":{"id":1214,"name":"송도 Songdo","short_name":"Songdo","long_name":"송도","line":"SeoulMTRSuinbundangseon","order":58},"id":1214},{"type":"Feature","geometry":{"type":"Point","coordinates":[126.950811,36.769628]},"properties":{"id":147,"name":"신창(순천향대) Sinchang(Soonchunhyang University)","short_name":") Sinchang(Soonchunhyang University)","long_name":"신창(순천향대","line":"SeoulSubway1Hoseon","order":57},"id":147},{"type":"Feature","geometry":{"type":"Point","coordinates":[126.668264,37.466117]},"properties":{"id":205,"name":"도화 Dohwa","short_name":"Dohwa","long_name":"도화","line":"SeoulSubway1Hoseon","order":57},"id":205},{"type":"Feature","geometry":{"type":"Point","coordinates":[126.67894,37.417804]},"properties":{"id":1213,"name":"연수 Yeonsu","short_name":"Yeonsu","long_name":"연수","line":"SeoulMTRSuinbundangseon","order":57},"id":1213},{"type":"Feature","geometry":{"type":"Point","coordinates":[127.003333,36.780556]},"properties":{"id":146,"name":"온양온천 Onyang oncheon","short_name":"Onyang oncheon","long_name":"온양온천","line":"SeoulSubway1Hoseon","order":56},"id":146},{"type":"Feature","geometry":{"type":"Point","coordinates":[126.680211,37.464861]},"properties":{"id":204,"name":"주안 Juan","short_name":"Juan","long_name":"주안","line":"SeoulSubway1Hoseon","order":56},"id":204},{"type":"Feature","geometry":{"type":"Point","coordinates":[126.787936,37.643066]},"properties":{"id":440,"name":"백석 Baekseok","short_name":"Baekseok","long_name":"백석","line":"SeoulSubway3Hoseon","order":56},"id":440},{"type":"Feature","geometry":{"type":"Point","coordinates":[126.686648,37.413049]},"properties":{"id":1212,"name":"원인재 Woninjae","short_name":"Woninjae","long_name":"원인재","line":"SeoulMTRSuinbundangseon","order":56},"id":1212},{"type":"Feature","geometry":{"type":"Point","coordinates":[127.052939,36.77765]},"properties":{"id":145,"name":"배방 Baebang","short_name":"Baebang","long_name":"배방","line":"SeoulSubway1Hoseon","order":55},"id":145},{"type":"Feature","geometry":{"type":"Point","coordinates":[126.694069,37.464689]},"properties":{"id":203,"name":"간석 Ganseok","short_name":"Ganseok","long_name":"간석","line":"SeoulSubway1Hoseon","order":55},"id":203},{"type":"Feature","geometry":{"type":"Point","coordinates":[126.695216,37.407722]},"properties":{"id":1211,"name":"남동인더스파크 Namdong Induspark","short_name":"Namdong Induspark","long_name":"남동인더스파크","line":"SeoulMTRSuinbundangseon","order":55},"id":1211},{"type":"Feature","geometry":{"type":"Point","coordinates":[127.084408,36.788179]},"properties":{"id":144,"name":"탕정 Tangjeong","short_name":"Tangjeong","long_name":"탕정","line":"SeoulSubway1Hoseon","order":54},"id":144},{"type":"Feature","geometry":{"type":"Point","coordinates":[126.703339,37.471669]},"properties":{"id":202,"name":"동암 Dongam","short_name":"Dongam","long_name":"동암","line":"SeoulSubway1Hoseon","order":54},"id":202},{"type":"Feature","geometry":{"type":"Point","coordinates":[126.708627,37.401637]},"properties":{"id":1210,"name":"호구포 Hogupo","short_name":"Hogupo","long_name":"호구포","line":"SeoulMTRSuinbundangseon","order":54},"id":1210},{"type":"Feature","geometry":{"type":"Point","coordinates":[127.214289,37.24483]},"properties":{"id":1337,"name":"고진 Gojin","short_name":"Gojin","long_name":"고진","line":"SeoulLightRailTransitEverline","order":54},"id":1337},{"type":"Feature","geometry":{"type":"Point","coordinates":[127.071466,37.750669]},"properties":{"id":1371,"name":"경기도청북부청사 Northern Gyeonggi-do Government","short_name":"Northern Gyeonggi-do Government","long_name":"경기도청북부청사","line":"SeoulLightRailTransitUijeongbu","order":54},"id":1371},{"type":"Feature","geometry":{"type":"Point","coordinates":[127.104581,36.792178]},"properties":{"id":143,"name":"아산 Asan","short_name":"Asan","long_name":"아산","line":"SeoulSubway1Hoseon","order":53},"id":143},{"type":"Feature","geometry":{"type":"Point","coordinates":[126.707631,37.483561]},"properties":{"id":201,"name":"백운 Baegun","short_name":"Baegun","long_name":"백운","line":"SeoulSubway1Hoseon","order":53},"id":201},{"type":"Feature","geometry":{"type":"Point","coordinates":[126.722478,37.400614]},"properties":{"id":1209,"name":"인천논현 Incheon Nonhyeon","short_name":"Incheon Nonhyeon","long_name":"인천논현","line":"SeoulMTRSuinbundangseon","order":53},"id":1209},{"type":"Feature","geometry":{"type":"Point","coordinates":[127.121197,36.793792]},"properties":{"id":142,"name":"쌍용(나사렛대) Ssangyong","short_name":") Ssangyong","long_name":"쌍용(나사렛대","line":"SeoulSubway1Hoseon","order":52},"id":142},{"type":"Feature","geometry":{"type":"Point","coordinates":[126.723453,37.490535]},"properties":{"id":200,"name":"부평 Bupyeong","short_name":"Bupyeong","long_name":"부평","line":"SeoulSubway1Hoseon","order":52},"id":200},{"type":"Feature","geometry":{"type":"Point","coordinates":[127.629661,37.476876]},"properties":{"id":1050,"name":"지평 Jipyeong","short_name":"Jipyeong","long_name":"지평","line":"SeoulMTRGyeongyijungangseon","order":52},"id":1050},{"type":"Feature","geometry":{"type":"Point","coordinates":[126.733522,37.40095]},"properties":{"id":1208,"name":"소래포구 Soraepogu","short_name":"Soraepogu","long_name":"소래포구","line":"SeoulMTRSuinbundangseon","order":52},"id":1208},{"type":"Feature","geometry":{"type":"Point","coordinates":[127.135539,36.801111]},"properties":{"id":141,"name":"봉명 Bongmyeong","short_name":"Bongmyeong","long_name":"봉명","line":"SeoulSubway1Hoseon","order":51},"id":141},{"type":"Feature","geometry":{"type":"Point","coordinates":[127.594405,37.482511]},"properties":{"id":1049,"name":"용문 Yongmun","short_name":"Yongmun","long_name":"용문","line":"SeoulMTRGyeongyijungangseon","order":51},"id":1049},{"type":"Feature","geometry":{"type":"Point","coordinates":[126.742699,37.391769]},"properties":{"id":1207,"name":"월곶 Wolgot","short_name":"Wolgot","long_name":"월곶","line":"SeoulMTRSuinbundangseon","order":51},"id":1207},{"type":"Feature","geometry":{"type":"Point","coordinates":[127.063622,37.748856]},"properties":{"id":1370,"name":"새말 Sae-mal","short_name":"Sae-mal","long_name":"새말","line":"SeoulLightRailTransitUijeongbu","order":51},"id":1370},{"type":"Feature","geometry":{"type":"Point","coordinates":[127.144444,36.809167]},"properties":{"id":140,"name":"천안 Cheonan","short_name":"Cheonan","long_name":"천안","line":"SeoulSubway1Hoseon","order":50},"id":140},{"type":"Feature","geometry":{"type":"Point","coordinates":[126.75281,37.48766]},"properties":{"id":198,"name":"송내 Songnae","short_name":"Songnae","long_name":"송내","line":"SeoulSubway1Hoseon","order":50},"id":198},{"type":"Feature","geometry":{"type":"Point","coordinates":[127.547082,37.468495]},"properties":{"id":1048,"name":"원덕(추읍산) Wondeok","short_name":") Wondeok","long_name":"원덕(추읍산","line":"SeoulMTRGyeongyijungangseon","order":50},"id":1048},{"type":"Feature","geometry":{"type":"Point","coordinates":[126.745177,37.379681]},"properties":{"id":1206,"name":"달월 Dalwol","short_name":"Dalwol","long_name":"달월","line":"SeoulMTRSuinbundangseon","order":50},"id":1206},{"type":"Feature","geometry":{"type":"Point","coordinates":[127.149,36.832889]},"properties":{"id":139,"name":"두정 Dujeong","short_name":"Dujeong","long_name":"두정","line":"SeoulSubway1Hoseon","order":49},"id":139},{"type":"Feature","geometry":{"type":"Point","coordinates":[126.76455,37.48655]},"properties":{"id":197,"name":"중동 Jung-dong","short_name":"Jung-dong","long_name":"중동","line":"SeoulSubway1Hoseon","order":49},"id":197},{"type":"Feature","geometry":{"type":"Point","coordinates":[127.491382,37.49276]},"properties":{"id":1047,"name":"양평 Yangpyeong","short_name":"Yangpyeong","long_name":"양평","line":"SeoulMTRGyeongyijungangseon","order":49},"id":1047},{"type":"Feature","geometry":{"type":"Point","coordinates":[126.738411,37.362031]},"properties":{"id":1205,"name":"오이도 Oido","short_name":"Oido","long_name":"오이도","line":"SeoulMTRSuinbundangseon","order":49},"id":1205},{"type":"Feature","geometry":{"type":"Point","coordinates":[127.054722,37.193056]},"properties":{"id":49,"name":"서동탄 Seodongtan","short_name":"Seodongtan","long_name":"서동탄","line":"SeoulSubway1Hoseon","order":48},"id":49},{"type":"Feature","geometry":{"type":"Point","coordinates":[127.143889,36.870833]},"properties":{"id":138,"name":"직산 Jiksan","short_name":"Jiksan","long_name":"직산","line":"SeoulSubway1Hoseon","order":48},"id":138},{"type":"Feature","geometry":{"type":"Point","coordinates":[126.782661,37.483961]},"properties":{"id":196,"name":"부천 Bucheon","short_name":"Bucheon","long_name":"부천","line":"SeoulSubway1Hoseon","order":48},"id":196},{"type":"Feature","geometry":{"type":"Point","coordinates":[127.223556,37.539802]},"properties":{"id":675,"name":"하남검단산 Hanam Geomdansan","short_name":"Hanam Geomdansan","long_name":"하남검단산","line":"SeoulSubway5Hoseon","order":48},"id":675},{"type":"Feature","geometry":{"type":"Point","coordinates":[127.473858,37.505847]},"properties":{"id":1046,"name":"오빈 Obin","short_name":"Obin","long_name":"오빈","line":"SeoulMTRGyeongyijungangseon","order":48},"id":1046},{"type":"Feature","geometry":{"type":"Point","coordinates":[126.742789,37.351661]},"properties":{"id":1204,"name":"정왕 Jeongwang","short_name":"Jeongwang","long_name":"정왕","line":"SeoulMTRSuinbundangseon","order":48},"id":1204},{"type":"Feature","geometry":{"type":"Point","coordinates":[127.033056,37.206667]},"properties":{"id":48,"name":"병점 Byeongjeom","short_name":"Byeongjeom","long_name":"병점","line":"SeoulSubway1Hoseon","order":47},"id":48},{"type":"Feature","geometry":{"type":"Point","coordinates":[127.126925,36.916064]},"properties":{"id":137,"name":"성환 Seonghwan","short_name":"Seonghwan","long_name":"성환","line":"SeoulSubway1Hoseon","order":47},"id":137},{"type":"Feature","geometry":{"type":"Point","coordinates":[126.79545,37.482731]},"properties":{"id":195,"name":"소사 Sosa","short_name":"Sosa","long_name":"소사","line":"SeoulSubway1Hoseon","order":47},"id":195},{"type":"Feature","geometry":{"type":"Point","coordinates":[126.738411,37.362031]},"properties":{"id":597,"name":"오이도 Oido","short_name":"Oido","long_name":"오이도","line":"SeoulSubway4Hoseon","order":47},"id":597},{"type":"Feature","geometry":{"type":"Point","coordinates":[127.206972,37.541636]},"properties":{"id":674,"name":"하남시청(덕풍·신장) Hanam City Hall","short_name":") Hanam City Hall","long_name":"하남시청(덕풍·신장","line":"SeoulSubway5Hoseon","order":47},"id":674},{"type":"Feature","geometry":{"type":"Point","coordinates":[127.104354,37.514661]},"properties":{"id":872,"name":"잠실(송파구청) Jamsil","short_name":") Jamsil","long_name":"잠실(송파구청","line":"SeoulSubway8Hoseon","order":47},"id":872},{"type":"Feature","geometry":{"type":"Point","coordinates":[127.443125,37.513719]},"properties":{"id":1045,"name":"아신(아세아연합신학대) Asin","short_name":") Asin","long_name":"아신(아세아연합신학대","line":"SeoulMTRGyeongyijungangseon","order":47},"id":1045},{"type":"Feature","geometry":{"type":"Point","coordinates":[126.76725,37.337472]},"properties":{"id":1203,"name":"신길온천 Singil Oncheon","short_name":"Singil Oncheon","long_name":"신길온천","line":"SeoulMTRSuinbundangseon","order":47},"id":1203},{"type":"Feature","geometry":{"type":"Point","coordinates":[127.014167,37.244167]},"properties":{"id":47,"name":"세류 Seryu","short_name":"Seryu","long_name":"세류","line":"SeoulSubway1Hoseon","order":46},"id":47},{"type":"Feature","geometry":{"type":"Point","coordinates":[127.085,36.991083]},"properties":{"id":136,"name":"평택 Pyeongtaek","short_name":"Pyeongtaek","long_name":"평택","line":"SeoulSubway1Hoseon","order":46},"id":136},{"type":"Feature","geometry":{"type":"Point","coordinates":[126.811586,37.485117]},"properties":{"id":194,"name":"역곡 Yeokgok","short_name":"Yeokgok","long_name":"역곡","line":"SeoulSubway1Hoseon","order":46},"id":194},{"type":"Feature","geometry":{"type":"Point","coordinates":[126.742789,37.351661]},"properties":{"id":596,"name":"정왕 Jeongwang","short_name":"Jeongwang","long_name":"정왕","line":"SeoulSubway4Hoseon","order":46},"id":596},{"type":"Feature","geometry":{"type":"Point","coordinates":[127.203864,37.552034]},"properties":{"id":673,"name":"하남풍산 Hanam Pungsan","short_name":"Hanam Pungsan","long_name":"하남풍산","line":"SeoulSubway5Hoseon","order":46},"id":673},{"type":"Feature","geometry":{"type":"Point","coordinates":[127.399601,37.51591]},"properties":{"id":1044,"name":"국수 Guksu","short_name":"Guksu","long_name":"국수","line":"SeoulMTRGyeongyijungangseon","order":46},"id":1044},{"type":"Feature","geometry":{"type":"Point","coordinates":[126.78845,37.327089]},"properties":{"id":1202,"name":"안산 Ansan","short_name":"Ansan","long_name":"안산","line":"SeoulMTRSuinbundangseon","order":46},"id":1202},{"type":"Feature","geometry":{"type":"Point","coordinates":[127.056975,37.74525]},"properties":{"id":1369,"name":"동오 Dong-o","short_name":"Dong-o","long_name":"동오","line":"SeoulLightRailTransitUijeongbu","order":46},"id":1369},{"type":"Feature","geometry":{"type":"Point","coordinates":[126.999422,37.265917]},"properties":{"id":46,"name":"수원 Suwon","short_name":"Suwon","long_name":"수원","line":"SeoulSubway1Hoseon","order":45},"id":46},{"type":"Feature","geometry":{"type":"Point","coordinates":[127.070278,37.018889]},"properties":{"id":135,"name":"평택지제 PyeongtaekJije","short_name":"PyeongtaekJije","long_name":"평택지제","line":"SeoulSubway1Hoseon","order":45},"id":135},{"type":"Feature","geometry":{"type":"Point","coordinates":[126.823039,37.492031]},"properties":{"id":193,"name":"온수 Onsu","short_name":"Onsu","long_name":"온수","line":"SeoulSubway1Hoseon","order":45},"id":193},{"type":"Feature","geometry":{"type":"Point","coordinates":[126.76725,37.337472]},"properties":{"id":595,"name":"신길온천 Singil Oncheon","short_name":"Singil Oncheon","long_name":"신길온천","line":"SeoulSubway4Hoseon","order":45},"id":595},{"type":"Feature","geometry":{"type":"Point","coordinates":[127.193877,37.560927]},"properties":{"id":672,"name":"미사 Misa","short_name":"Misa","long_name":"미사","line":"SeoulSubway5Hoseon","order":45},"id":672},{"type":"Feature","geometry":{"type":"Point","coordinates":[127.152781,37.49499]},"properties":{"id":721,"name":"마천 Macheon","short_name":"Macheon","long_name":"마천","line":"SeoulSubway5Hoseon","order":45},"id":721},{"type":"Feature","geometry":{"type":"Point","coordinates":[127.373085,37.525548]},"properties":{"id":1043,"name":"신원 Sinwon","short_name":"Sinwon","long_name":"신원","line":"SeoulMTRGyeongyijungangseon","order":45},"id":1043},{"type":"Feature","geometry":{"type":"Point","coordinates":[126.806194,37.320583]},"properties":{"id":1201,"name":"초지 Choji","short_name":"Choji","long_name":"초지","line":"SeoulMTRSuinbundangseon","order":45},"id":1201},{"type":"Feature","geometry":{"type":"Point","coordinates":[126.988889,37.285]},"properties":{"id":45,"name":"화서 Hwaseo","short_name":"Hwaseo","long_name":"화서","line":"SeoulSubway1Hoseon","order":44},"id":45},{"type":"Feature","geometry":{"type":"Point","coordinates":[127.053889,37.056389]},"properties":{"id":134,"name":"서정리 Seojeong-ri","short_name":"Seojeong-ri","long_name":"서정리","line":"SeoulSubway1Hoseon","order":44},"id":134},{"type":"Feature","geometry":{"type":"Point","coordinates":[126.845333,37.494489]},"properties":{"id":192,"name":"오류동 Oryu-dong","short_name":"Oryu-dong","long_name":"오류동","line":"SeoulSubway1Hoseon","order":44},"id":192},{"type":"Feature","geometry":{"type":"Point","coordinates":[126.777636,37.652167]},"properties":{"id":439,"name":"마두 Madu","short_name":"Madu","long_name":"마두","line":"SeoulSubway3Hoseon","order":44},"id":439},{"type":"Feature","geometry":{"type":"Point","coordinates":[127.17593,37.55749]},"properties":{"id":671,"name":"강일 Gangil","short_name":"Gangil","long_name":"강일","line":"SeoulSubway5Hoseon","order":44},"id":671},{"type":"Feature","geometry":{"type":"Point","coordinates":[127.14415,37.493105]},"properties":{"id":720,"name":"거여 Geoyeo","short_name":"Geoyeo","long_name":"거여","line":"SeoulSubway5Hoseon","order":44},"id":720},{"type":"Feature","geometry":{"type":"Point","coordinates":[127.329145,37.545996]},"properties":{"id":1042,"name":"양수 Yangsu","short_name":"Yangsu","long_name":"양수","line":"SeoulMTRGyeongyijungangseon","order":44},"id":1042},{"type":"Feature","geometry":{"type":"Point","coordinates":[126.823056,37.316861]},"properties":{"id":1200,"name":"고잔 Gojan","short_name":"Gojan","long_name":"고잔","line":"SeoulMTRSuinbundangseon","order":44},"id":1200},{"type":"Feature","geometry":{"type":"Point","coordinates":[126.972222,37.300278]},"properties":{"id":44,"name":"성균관대 Sungkyunkwan University","short_name":"Sungkyunkwan University","long_name":"성균관대","line":"SeoulSubway1Hoseon","order":43},"id":44},{"type":"Feature","geometry":{"type":"Point","coordinates":[127.054167,37.075278]},"properties":{"id":133,"name":"송탄 Songtan","short_name":"Songtan","long_name":"송탄","line":"SeoulSubway1Hoseon","order":43},"id":133},{"type":"Feature","geometry":{"type":"Point","coordinates":[126.858481,37.494481]},"properties":{"id":191,"name":"개봉 Gaebong","short_name":"Gaebong","long_name":"개봉","line":"SeoulSubway1Hoseon","order":43},"id":191},{"type":"Feature","geometry":{"type":"Point","coordinates":[127.166417,37.556712]},"properties":{"id":670,"name":"상일동 Sangil-dong","short_name":"Sangil-dong","long_name":"상일동","line":"SeoulSubway5Hoseon","order":43},"id":670},{"type":"Feature","geometry":{"type":"Point","coordinates":[127.13482,37.498079]},"properties":{"id":719,"name":"개롱 Gaerong","short_name":"Gaerong","long_name":"개롱","line":"SeoulSubway5Hoseon","order":43},"id":719},{"type":"Feature","geometry":{"type":"Point","coordinates":[127.310171,37.554715]},"properties":{"id":1041,"name":"운길산 Ungilsan","short_name":"Ungilsan","long_name":"운길산","line":"SeoulMTRGyeongyijungangseon","order":43},"id":1041},{"type":"Feature","geometry":{"type":"Point","coordinates":[126.838642,37.315958]},"properties":{"id":1199,"name":"중앙 Jungang","short_name":"Jungang","long_name":"중앙","line":"SeoulMTRSuinbundangseon","order":43},"id":1199},{"type":"Feature","geometry":{"type":"Point","coordinates":[126.948333,37.321111]},"properties":{"id":43,"name":"의왕 Uiwang","short_name":"Uiwang","long_name":"의왕","line":"SeoulSubway1Hoseon","order":42},"id":43},{"type":"Feature","geometry":{"type":"Point","coordinates":[127.06225,37.109442]},"properties":{"id":132,"name":"진위 Jinwi","short_name":"Jinwi","long_name":"진위","line":"SeoulSubway1Hoseon","order":42},"id":132},{"type":"Feature","geometry":{"type":"Point","coordinates":[126.869722,37.496111]},"properties":{"id":190,"name":"구일 Guil","short_name":"Guil","long_name":"구일","line":"SeoulSubway1Hoseon","order":42},"id":190},{"type":"Feature","geometry":{"type":"Point","coordinates":[127.069191,37.540373]},"properties":{"id":429,"name":"건대입구 Konkuk Univ.","short_name":"Konkuk Univ.","long_name":"건대입구","line":"SeoulSubway2Hoseon","order":42},"id":429},{"type":"Feature","geometry":{"type":"Point","coordinates":[127.154151,37.555004]},"properties":{"id":669,"name":"고덕 Godeok","short_name":"Godeok","long_name":"고덕","line":"SeoulSubway5Hoseon","order":42},"id":669},{"type":"Feature","geometry":{"type":"Point","coordinates":[127.128319,37.502129]},"properties":{"id":718,"name":"오금 Ogeum","short_name":"Ogeum","long_name":"오금","line":"SeoulSubway5Hoseon","order":42},"id":718},{"type":"Feature","geometry":{"type":"Point","coordinates":[127.243719,37.546944]},"properties":{"id":1040,"name":"팔당 Paldang","short_name":"Paldang","long_name":"팔당","line":"SeoulMTRGyeongyijungangseon","order":42},"id":1040},{"type":"Feature","geometry":{"type":"Point","coordinates":[126.853581,37.309772]},"properties":{"id":1198,"name":"한대앞 Hanyang University at Ansan","short_name":"Hanyang University at Ansan","long_name":"한대앞","line":"SeoulMTRSuinbundangseon","order":42},"id":1198},{"type":"Feature","geometry":{"type":"Point","coordinates":[126.948333,37.344444]},"properties":{"id":42,"name":"당정 Dangjeong","short_name":"Dangjeong","long_name":"당정","line":"SeoulSubway1Hoseon","order":41},"id":42},{"type":"Feature","geometry":{"type":"Point","coordinates":[127.067222,37.145556]},"properties":{"id":131,"name":"오산 Osan","short_name":"Osan","long_name":"오산","line":"SeoulSubway1Hoseon","order":41},"id":131},{"type":"Feature","geometry":{"type":"Point","coordinates":[127.085916,37.537077]},"properties":{"id":428,"name":"구의(광진구청) Guui","short_name":") Guui","long_name":"구의(광진구청","line":"SeoulSubway2Hoseon","order":41},"id":428},{"type":"Feature","geometry":{"type":"Point","coordinates":[126.78845,37.327089]},"properties":{"id":521,"name":"안산 Ansan","short_name":"Ansan","long_name":"안산","line":"SeoulSubway4Hoseon","order":41},"id":521},{"type":"Feature","geometry":{"type":"Point","coordinates":[127.143999,37.55137]},"properties":{"id":668,"name":"명일 Myeongil","short_name":"Myeongil","long_name":"명일","line":"SeoulSubway5Hoseon","order":41},"id":668},{"type":"Feature","geometry":{"type":"Point","coordinates":[127.126133,37.508857]},"properties":{"id":717,"name":"방이 Bangi","short_name":"Bangi","long_name":"방이","line":"SeoulSubway5Hoseon","order":41},"id":717},{"type":"Feature","geometry":{"type":"Point","coordinates":[127.112365,37.5174]},"properties":{"id":871,"name":"몽촌토성(평화의문) Mongcheontoseong(World Peace Gate)","short_name":") Mongcheontoseong(World Peace Gate)","long_name":"몽촌토성(평화의문","line":"SeoulSubway8Hoseon","order":41},"id":871},{"type":"Feature","geometry":{"type":"Point","coordinates":[127.222921,37.579574]},"properties":{"id":1039,"name":"도심 Dosim","short_name":"Dosim","long_name":"도심","line":"SeoulMTRGyeongyijungangseon","order":41},"id":1039},{"type":"Feature","geometry":{"type":"Point","coordinates":[126.85685,37.28998]},"properties":{"id":1197,"name":"사리 Sari","short_name":"Sari","long_name":"사리","line":"SeoulMTRSuinbundangseon","order":41},"id":1197},{"type":"Feature","geometry":{"type":"Point","coordinates":[127.218508,37.25898]},"properties":{"id":1336,"name":"보평 Bopyeong","short_name":"Bopyeong","long_name":"보평","line":"SeoulLightRailTransitEverline","order":41},"id":1336},{"type":"Feature","geometry":{"type":"Point","coordinates":[126.948611,37.353611]},"properties":{"id":41,"name":"군포 Gunpo","short_name":"Gunpo","long_name":"군포","line":"SeoulSubway1Hoseon","order":40},"id":41},{"type":"Feature","geometry":{"type":"Point","coordinates":[127.063056,37.169444]},"properties":{"id":130,"name":"오산대 Osan College","short_name":"Osan College","long_name":"오산대","line":"SeoulSubway1Hoseon","order":40},"id":130},{"type":"Feature","geometry":{"type":"Point","coordinates":[127.094681,37.535095]},"properties":{"id":427,"name":"강변(동서울터미널) Gangbyeon","short_name":") Gangbyeon","long_name":"강변(동서울터미널","line":"SeoulSubway2Hoseon","order":40},"id":427},{"type":"Feature","geometry":{"type":"Point","coordinates":[126.806194,37.320583]},"properties":{"id":520,"name":"초지 Choji","short_name":"Choji","long_name":"초지","line":"SeoulSubway4Hoseon","order":40},"id":520},{"type":"Feature","geometry":{"type":"Point","coordinates":[127.142853,37.545477]},"properties":{"id":667,"name":"굽은다리(강동구민회관앞) Gubeundari","short_name":") Gubeundari","long_name":"굽은다리(강동구민회관앞","line":"SeoulSubway5Hoseon","order":40},"id":667},{"type":"Feature","geometry":{"type":"Point","coordinates":[127.130288,37.516269]},"properties":{"id":716,"name":"올림픽공원(한국체대) Olympic Park","short_name":") Olympic Park","long_name":"올림픽공원(한국체대","line":"SeoulSubway5Hoseon","order":40},"id":716},{"type":"Feature","geometry":{"type":"Point","coordinates":[126.838713,37.486637]},"properties":{"id":855,"name":"천왕 Cheonwang","short_name":"Cheonwang","long_name":"천왕","line":"SeoulSubway7Hoseon","order":40},"id":855},{"type":"Feature","geometry":{"type":"Point","coordinates":[127.208932,37.586826]},"properties":{"id":975,"name":"덕소 Deokso","short_name":"Deokso","long_name":"덕소","line":"SeoulMTRGyeongyijungangseon","order":40},"id":975},{"type":"Feature","geometry":{"type":"Point","coordinates":[126.879483,37.264179]},"properties":{"id":1196,"name":"야목 Yamok","short_name":"Yamok","long_name":"야목","line":"SeoulMTRSuinbundangseon","order":40},"id":1196},{"type":"Feature","geometry":{"type":"Point","coordinates":[126.943333,37.3725]},"properties":{"id":40,"name":"금정 Geumjeong","short_name":"Geumjeong","long_name":"금정","line":"SeoulSubway1Hoseon","order":39},"id":40},{"type":"Feature","geometry":{"type":"Point","coordinates":[127.043333,37.1875]},"properties":{"id":129,"name":"세마 Sema","short_name":"Sema","long_name":"세마","line":"SeoulSubway1Hoseon","order":39},"id":129},{"type":"Feature","geometry":{"type":"Point","coordinates":[127.10379,37.520733]},"properties":{"id":426,"name":"잠실나루 Jamsillaru","short_name":"Jamsillaru","long_name":"잠실나루","line":"SeoulSubway2Hoseon","order":39},"id":426},{"type":"Feature","geometry":{"type":"Point","coordinates":[126.823056,37.316861]},"properties":{"id":519,"name":"고잔 Gojan","short_name":"Gojan","long_name":"고잔","line":"SeoulSubway4Hoseon","order":39},"id":519},{"type":"Feature","geometry":{"type":"Point","coordinates":[127.140004,37.537801]},"properties":{"id":666,"name":"길동 Gil-dong","short_name":"Gil-dong","long_name":"길동","line":"SeoulSubway5Hoseon","order":39},"id":666},{"type":"Feature","geometry":{"type":"Point","coordinates":[127.136248,37.527788]},"properties":{"id":715,"name":"둔촌동 Dunchon-dong","short_name":"Dunchon-dong","long_name":"둔촌동","line":"SeoulSubway5Hoseon","order":39},"id":715},{"type":"Feature","geometry":{"type":"Point","coordinates":[127.102231,37.613174]},"properties":{"id":761,"name":"신내 Sinnae","short_name":"Sinnae","long_name":"신내","line":"SeoulSubway6Hoseon","order":39},"id":761},{"type":"Feature","geometry":{"type":"Point","coordinates":[126.854876,37.479252]},"properties":{"id":854,"name":"광명사거리 Gwangmyeongsageori","short_name":"Gwangmyeongsageori","long_name":"광명사거리","line":"SeoulSubway7Hoseon","order":39},"id":854},{"type":"Feature","geometry":{"type":"Point","coordinates":[127.194389,37.604361]},"properties":{"id":974,"name":"양정 Yangjeong","short_name":"Yangjeong","long_name":"양정","line":"SeoulMTRGyeongyijungangseon","order":39},"id":974},{"type":"Feature","geometry":{"type":"Point","coordinates":[126.90879,37.250102]},"properties":{"id":1195,"name":"어천 Eocheon","short_name":"Eocheon","long_name":"어천","line":"SeoulMTRSuinbundangseon","order":39},"id":1195},{"type":"Feature","geometry":{"type":"Point","coordinates":[126.935556,37.385]},"properties":{"id":39,"name":"명학 Myeonghak","short_name":"Myeonghak","long_name":"명학","line":"SeoulSubway1Hoseon","order":38},"id":39},{"type":"Feature","geometry":{"type":"Point","coordinates":[127.100159,37.513262]},"properties":{"id":425,"name":"잠실(송파구청) Jamsil","short_name":") Jamsil","long_name":"잠실(송파구청","line":"SeoulSubway2Hoseon","order":38},"id":425},{"type":"Feature","geometry":{"type":"Point","coordinates":[126.773249,37.659659]},"properties":{"id":438,"name":"정발산 Jeongbalsan","short_name":"Jeongbalsan","long_name":"정발산","line":"SeoulSubway3Hoseon","order":38},"id":438},{"type":"Feature","geometry":{"type":"Point","coordinates":[126.838642,37.315958]},"properties":{"id":518,"name":"중앙 Jungang","short_name":"Jungang","long_name":"중앙","line":"SeoulSubway4Hoseon","order":38},"id":518},{"type":"Feature","geometry":{"type":"Point","coordinates":[127.132481,37.535804]},"properties":{"id":665,"name":"강동 Gangdong","short_name":"Gangdong","long_name":"강동","line":"SeoulSubway5Hoseon","order":38},"id":665},{"type":"Feature","geometry":{"type":"Point","coordinates":[127.091401,37.617283]},"properties":{"id":760,"name":"봉화산(서울의료원) Bonghwasan","short_name":") Bonghwasan","long_name":"봉화산(서울의료원","line":"SeoulSubway6Hoseon","order":38},"id":760},{"type":"Feature","geometry":{"type":"Point","coordinates":[126.867911,37.47605]},"properties":{"id":853,"name":"철산 Cheolsan","short_name":"Cheolsan","long_name":"철산","line":"SeoulSubway7Hoseon","order":38},"id":853},{"type":"Feature","geometry":{"type":"Point","coordinates":[127.161195,37.608813]},"properties":{"id":973,"name":"도농 Donong","short_name":"Donong","long_name":"도농","line":"SeoulMTRGyeongyijungangseon","order":38},"id":973},{"type":"Feature","geometry":{"type":"Point","coordinates":[126.963676,37.24304]},"properties":{"id":1194,"name":"오목천 Omokcheon","short_name":"Omokcheon","long_name":"오목천","line":"SeoulMTRSuinbundangseon","order":38},"id":1194},{"type":"Feature","geometry":{"type":"Point","coordinates":[126.9225,37.402222]},"properties":{"id":38,"name":"안양 Anyang","short_name":"Anyang","long_name":"안양","line":"SeoulSubway1Hoseon","order":37},"id":38},{"type":"Feature","geometry":{"type":"Point","coordinates":[127.086162,37.511687]},"properties":{"id":424,"name":"잠실새내 Jamsilsaenae","short_name":"Jamsilsaenae","long_name":"잠실새내","line":"SeoulSubway2Hoseon","order":37},"id":424},{"type":"Feature","geometry":{"type":"Point","coordinates":[126.853581,37.309772]},"properties":{"id":517,"name":"한대앞 Hanyang University at Ansan","short_name":"Hanyang University at Ansan","long_name":"한대앞","line":"SeoulSubway4Hoseon","order":37},"id":517},{"type":"Feature","geometry":{"type":"Point","coordinates":[127.123308,37.53864]},"properties":{"id":664,"name":"천호(풍납토성) Cheonho","short_name":") Cheonho","long_name":"천호(풍납토성","line":"SeoulSubway5Hoseon","order":37},"id":664},{"type":"Feature","geometry":{"type":"Point","coordinates":[127.084689,37.620064]},"properties":{"id":759,"name":"화랑대(서울여대입구) Hwarangdae(Seoul Women's University)","short_name":") Hwarangdae(Seoul Women's University)","long_name":"화랑대(서울여대입구","line":"SeoulSubway6Hoseon","order":37},"id":759},{"type":"Feature","geometry":{"type":"Point","coordinates":[126.882656,37.480338]},"properties":{"id":852,"name":"가산디지털단지 Gasan Digital Complex","short_name":"Gasan Digital Complex","long_name":"가산디지털단지","line":"SeoulSubway7Hoseon","order":37},"id":852},{"type":"Feature","geometry":{"type":"Point","coordinates":[126.798153,37.578608]},"properties":{"id":923,"name":"개화 Gaehwa","short_name":"Gaehwa","long_name":"개화","line":"SeoulSubway9Hoseon","order":37},"id":923},{"type":"Feature","geometry":{"type":"Point","coordinates":[127.143307,37.603209]},"properties":{"id":972,"name":"구리 Guri","short_name":"Guri","long_name":"구리","line":"SeoulMTRGyeongyijungangseon","order":37},"id":972},{"type":"Feature","geometry":{"type":"Point","coordinates":[126.980248,37.24963]},"properties":{"id":1193,"name":"고색 Gosaek","short_name":"Gosaek","long_name":"고색","line":"SeoulMTRSuinbundangseon","order":37},"id":1193},{"type":"Feature","geometry":{"type":"Point","coordinates":[127.049566,37.743664]},"properties":{"id":1368,"name":"의정부중앙 Uijeongbu Jung-ang","short_name":"Uijeongbu Jung-ang","long_name":"의정부중앙","line":"SeoulLightRailTransitUijeongbu","order":37},"id":1368},{"type":"Feature","geometry":{"type":"Point","coordinates":[126.909167,37.418889]},"properties":{"id":37,"name":"관악 Gwanak","short_name":"Gwanak","long_name":"관악","line":"SeoulSubway1Hoseon","order":36},"id":37},{"type":"Feature","geometry":{"type":"Point","coordinates":[127.073704,37.511022]},"properties":{"id":423,"name":"종합운동장 Sports Complex","short_name":"Sports Complex","long_name":"종합운동장","line":"SeoulSubway2Hoseon","order":36},"id":423},{"type":"Feature","geometry":{"type":"Point","coordinates":[126.866411,37.302711]},"properties":{"id":516,"name":"상록수 Sangnoksu","short_name":"Sangnoksu","long_name":"상록수","line":"SeoulSubway4Hoseon","order":36},"id":516},{"type":"Feature","geometry":{"type":"Point","coordinates":[127.10357,37.545303]},"properties":{"id":663,"name":"광나루(장신대) Gwangnaru","short_name":") Gwangnaru","long_name":"광나루(장신대","line":"SeoulSubway5Hoseon","order":36},"id":663},{"type":"Feature","geometry":{"type":"Point","coordinates":[127.074735,37.617338]},"properties":{"id":758,"name":"태릉입구 Taereung","short_name":"Taereung","long_name":"태릉입구","line":"SeoulSubway6Hoseon","order":36},"id":758},{"type":"Feature","geometry":{"type":"Point","coordinates":[126.887249,37.486056]},"properties":{"id":851,"name":"남구로 Namguro","short_name":"Namguro","long_name":"남구로","line":"SeoulSubway7Hoseon","order":36},"id":851},{"type":"Feature","geometry":{"type":"Point","coordinates":[126.801292,37.562384]},"properties":{"id":922,"name":"김포공항 Gimpo Intl. Airport","short_name":"Gimpo Intl. Airport","long_name":"김포공항","line":"SeoulSubway9Hoseon","order":36},"id":922},{"type":"Feature","geometry":{"type":"Point","coordinates":[127.108081,37.606657]},"properties":{"id":971,"name":"양원(서울시북부병원) Yangwon","short_name":") Yangwon","long_name":"양원(서울시북부병원","line":"SeoulMTRGyeongyijungangseon","order":36},"id":971},{"type":"Feature","geometry":{"type":"Point","coordinates":[126.999422,37.265917]},"properties":{"id":1192,"name":"수원 Suwon","short_name":"Suwon","long_name":"수원","line":"SeoulMTRSuinbundangseon","order":36},"id":1192},{"type":"Feature","geometry":{"type":"Point","coordinates":[126.9025,37.434444]},"properties":{"id":36,"name":"석수 Seoksu","short_name":"Seoksu","long_name":"석수","line":"SeoulSubway1Hoseon","order":35},"id":36},{"type":"Feature","geometry":{"type":"Point","coordinates":[127.06316,37.508844]},"properties":{"id":422,"name":"삼성(무역센터) Samseong","short_name":") Samseong","long_name":"삼성(무역센터","line":"SeoulSubway2Hoseon","order":35},"id":422},{"type":"Feature","geometry":{"type":"Point","coordinates":[126.903531,37.312131]},"properties":{"id":515,"name":"반월 Banwol","short_name":"Banwol","long_name":"반월","line":"SeoulSubway4Hoseon","order":35},"id":515},{"type":"Feature","geometry":{"type":"Point","coordinates":[127.089761,37.551691]},"properties":{"id":662,"name":"아차산(어린이대공원후문) Achasan Mountain","short_name":") Achasan Mountain","long_name":"아차산(어린이대공원후문","line":"SeoulSubway5Hoseon","order":35},"id":662},{"type":"Feature","geometry":{"type":"Point","coordinates":[127.065278,37.614722]},"properties":{"id":757,"name":"석계 Seokgye","short_name":"Seokgye","long_name":"석계","line":"SeoulSubway6Hoseon","order":35},"id":757},{"type":"Feature","geometry":{"type":"Point","coordinates":[126.894932,37.493243]},"properties":{"id":850,"name":"대림(구로구청) Daerim","short_name":") Daerim","long_name":"대림(구로구청","line":"SeoulSubway7Hoseon","order":35},"id":850},{"type":"Feature","geometry":{"type":"Point","coordinates":[126.810678,37.563726]},"properties":{"id":921,"name":"공항시장 Airport Market","short_name":"Airport Market","long_name":"공항시장","line":"SeoulSubway9Hoseon","order":35},"id":921},{"type":"Feature","geometry":{"type":"Point","coordinates":[127.092344,37.599285]},"properties":{"id":970,"name":"망우 Mangu","short_name":"Mangu","long_name":"망우","line":"SeoulMTRGyeongyijungangseon","order":35},"id":970},{"type":"Feature","geometry":{"type":"Point","coordinates":[127.015678,37.265481]},"properties":{"id":1191,"name":"매교 Maegyo","short_name":"Maegyo","long_name":"매교","line":"SeoulMTRSuinbundangseon","order":35},"id":1191},{"type":"Feature","geometry":{"type":"Point","coordinates":[127.03701,37.743185]},"properties":{"id":1367,"name":"흥선 Heungseon","short_name":"Heungseon","long_name":"흥선","line":"SeoulLightRailTransitUijeongbu","order":35},"id":1367},{"type":"Feature","geometry":{"type":"Point","coordinates":[126.894167,37.455556]},"properties":{"id":35,"name":"금천구청 Geumcheon-Gu Office","short_name":"Geumcheon-Gu Office","long_name":"금천구청","line":"SeoulSubway1Hoseon","order":34},"id":35},{"type":"Feature","geometry":{"type":"Point","coordinates":[127.048203,37.504286]},"properties":{"id":421,"name":"선릉 Seolleung","short_name":"Seolleung","long_name":"선릉","line":"SeoulSubway2Hoseon","order":34},"id":421},{"type":"Feature","geometry":{"type":"Point","coordinates":[126.917311,37.328239]},"properties":{"id":514,"name":"대야미 Daeyami","short_name":"Daeyami","long_name":"대야미","line":"SeoulSubway4Hoseon","order":34},"id":514},{"type":"Feature","geometry":{"type":"Point","coordinates":[127.079577,37.557088]},"properties":{"id":661,"name":"군자(능동) Gunja","short_name":") Gunja","long_name":"군자(능동","line":"SeoulSubway5Hoseon","order":34},"id":661},{"type":"Feature","geometry":{"type":"Point","coordinates":[127.056431,37.610537]},"properties":{"id":756,"name":"돌곶이 Dolgoji","short_name":"Dolgoji","long_name":"돌곶이","line":"SeoulSubway6Hoseon","order":34},"id":756},{"type":"Feature","geometry":{"type":"Point","coordinates":[126.90993,37.50008]},"properties":{"id":849,"name":"신풍 Sinpung","short_name":"Sinpung","long_name":"신풍","line":"SeoulSubway7Hoseon","order":34},"id":849},{"type":"Feature","geometry":{"type":"Point","coordinates":[126.816601,37.567532]},"properties":{"id":920,"name":"신방화 Sinbanghwa","short_name":"Sinbanghwa","long_name":"신방화","line":"SeoulSubway9Hoseon","order":34},"id":920},{"type":"Feature","geometry":{"type":"Point","coordinates":[127.085716,37.595577]},"properties":{"id":969,"name":"상봉(시외버스터미널) Sangbong","short_name":") Sangbong","long_name":"상봉(시외버스터미널","line":"SeoulMTRGyeongyijungangseon","order":34},"id":969},{"type":"Feature","geometry":{"type":"Point","coordinates":[127.030646,37.261967]},"properties":{"id":1190,"name":"수원시청(경기도문화의전당) Suwon City Hall","short_name":") Suwon City Hall","long_name":"수원시청(경기도문화의전당","line":"SeoulMTRSuinbundangseon","order":34},"id":1190},{"type":"Feature","geometry":{"type":"Point","coordinates":[126.889722,37.465556]},"properties":{"id":34,"name":"독산 Doksan","short_name":"Doksan","long_name":"독산","line":"SeoulSubway1Hoseon","order":33},"id":34},{"type":"Feature","geometry":{"type":"Point","coordinates":[127.036456,37.500622]},"properties":{"id":420,"name":"역삼 Yeoksam","short_name":"Yeoksam","long_name":"역삼","line":"SeoulSubway2Hoseon","order":33},"id":420},{"type":"Feature","geometry":{"type":"Point","coordinates":[126.925461,37.350181]},"properties":{"id":513,"name":"수리산 Surisan","short_name":"Surisan","long_name":"수리산","line":"SeoulSubway4Hoseon","order":33},"id":513},{"type":"Feature","geometry":{"type":"Point","coordinates":[127.064623,37.56144]},"properties":{"id":660,"name":"장한평 Janghanpyeong","short_name":"Janghanpyeong","long_name":"장한평","line":"SeoulSubway5Hoseon","order":33},"id":660},{"type":"Feature","geometry":{"type":"Point","coordinates":[127.048491,37.606377]},"properties":{"id":755,"name":"상월곡(한국과학기술연구원) Sangwolgok","short_name":") Sangwolgok","long_name":"상월곡(한국과학기술연구원","line":"SeoulSubway6Hoseon","order":33},"id":755},{"type":"Feature","geometry":{"type":"Point","coordinates":[126.920436,37.500274]},"properties":{"id":848,"name":"보라매 Boramae","short_name":"Boramae","long_name":"보라매","line":"SeoulSubway7Hoseon","order":33},"id":848},{"type":"Feature","geometry":{"type":"Point","coordinates":[126.82731,37.566778]},"properties":{"id":919,"name":"마곡나루 Magongnaru","short_name":"Magongnaru","long_name":"마곡나루","line":"SeoulSubway9Hoseon","order":33},"id":919},{"type":"Feature","geometry":{"type":"Point","coordinates":[127.075937,37.594931]},"properties":{"id":968,"name":"중랑 Jungnang","short_name":"Jungnang","long_name":"중랑","line":"SeoulMTRGyeongyijungangseon","order":33},"id":968},{"type":"Feature","geometry":{"type":"Point","coordinates":[127.040566,37.252759]},"properties":{"id":1189,"name":"매탄권선 MaetanGwonseon","short_name":"MaetanGwonseon","long_name":"매탄권선","line":"SeoulMTRSuinbundangseon","order":33},"id":1189},{"type":"Feature","geometry":{"type":"Point","coordinates":[126.882656,37.480338]},"properties":{"id":33,"name":"가산디지털단지 Gasan Digital Complex","short_name":"Gasan Digital Complex","long_name":"가산디지털단지","line":"SeoulSubway1Hoseon","order":32},"id":33},{"type":"Feature","geometry":{"type":"Point","coordinates":[127.027912,37.49799]},"properties":{"id":419,"name":"강남 Gangnam","short_name":"Gangnam","long_name":"강남","line":"SeoulSubway2Hoseon","order":32},"id":419},{"type":"Feature","geometry":{"type":"Point","coordinates":[126.933011,37.358089]},"properties":{"id":512,"name":"산본 Sanbon","short_name":"Sanbon","long_name":"산본","line":"SeoulSubway4Hoseon","order":32},"id":512},{"type":"Feature","geometry":{"type":"Point","coordinates":[127.052704,37.566747]},"properties":{"id":659,"name":"답십리 Dapsimni","short_name":"Dapsimni","long_name":"답십리","line":"SeoulSubway5Hoseon","order":32},"id":659},{"type":"Feature","geometry":{"type":"Point","coordinates":[127.041518,37.601948]},"properties":{"id":754,"name":"월곡(동덕여대) Wolgok(Dongduk Women's University)","short_name":") Wolgok(Dongduk Women's University)","long_name":"월곡(동덕여대","line":"SeoulSubway6Hoseon","order":32},"id":754},{"type":"Feature","geometry":{"type":"Point","coordinates":[126.928276,37.499701]},"properties":{"id":847,"name":"신대방삼거리 Sindaebangsamgeori","short_name":"Sindaebangsamgeori","long_name":"신대방삼거리","line":"SeoulSubway7Hoseon","order":32},"id":847},{"type":"Feature","geometry":{"type":"Point","coordinates":[126.841333,37.568381]},"properties":{"id":918,"name":"양천향교 Yangcheon Hyanggyo","short_name":"Yangcheon Hyanggyo","long_name":"양천향교","line":"SeoulSubway9Hoseon","order":32},"id":918},{"type":"Feature","geometry":{"type":"Point","coordinates":[127.057222,37.589167]},"properties":{"id":967,"name":"회기 Hoegi","short_name":"Hoegi","long_name":"회기","line":"SeoulMTRGyeongyijungangseon","order":32},"id":967},{"type":"Feature","geometry":{"type":"Point","coordinates":[127.057353,37.245795]},"properties":{"id":1188,"name":"망포 Mangpo","short_name":"Mangpo","long_name":"망포","line":"SeoulMTRSuinbundangseon","order":32},"id":1188},{"type":"Feature","geometry":{"type":"Point","coordinates":[126.882222,37.503056]},"properties":{"id":32,"name":"구로 Guro","short_name":"Guro","long_name":"구로","line":"SeoulSubway1Hoseon","order":31},"id":32},{"type":"Feature","geometry":{"type":"Point","coordinates":[127.013611,37.493611]},"properties":{"id":418,"name":"교대(법원·검찰청) Seoul National University of Education","short_name":") Seoul National University of Education","long_name":"교대(법원·검찰청","line":"SeoulSubway2Hoseon","order":31},"id":418},{"type":"Feature","geometry":{"type":"Point","coordinates":[126.943333,37.3725]},"properties":{"id":511,"name":"금정 Geumjeong","short_name":"Geumjeong","long_name":"금정","line":"SeoulSubway4Hoseon","order":31},"id":511},{"type":"Feature","geometry":{"type":"Point","coordinates":[127.042973,37.5661]},"properties":{"id":658,"name":"마장 Majang","short_name":"Majang","long_name":"마장","line":"SeoulSubway5Hoseon","order":31},"id":658},{"type":"Feature","geometry":{"type":"Point","coordinates":[127.036296,37.590508]},"properties":{"id":753,"name":"고려대(종암) Korea University","short_name":") Korea University","long_name":"고려대(종암","line":"SeoulSubway6Hoseon","order":31},"id":753},{"type":"Feature","geometry":{"type":"Point","coordinates":[126.93915,37.504898]},"properties":{"id":846,"name":"장승배기 Jangseungbaegi","short_name":"Jangseungbaegi","long_name":"장승배기","line":"SeoulSubway7Hoseon","order":31},"id":846},{"type":"Feature","geometry":{"type":"Point","coordinates":[126.854456,37.561391]},"properties":{"id":917,"name":"가양 Gayang","short_name":"Gayang","long_name":"가양","line":"SeoulSubway9Hoseon","order":31},"id":917},{"type":"Feature","geometry":{"type":"Point","coordinates":[127.04823,37.58059]},"properties":{"id":966,"name":"청량리 Cheongnyangni","short_name":"Cheongnyangni","long_name":"청량리","line":"SeoulMTRGyeongyijungangseon","order":31},"id":966},{"type":"Feature","geometry":{"type":"Point","coordinates":[127.071246,37.251391]},"properties":{"id":1187,"name":"영통(경희대) Yeongtong","short_name":") Yeongtong","long_name":"영통(경희대","line":"SeoulMTRSuinbundangseon","order":31},"id":1187},{"type":"Feature","geometry":{"type":"Point","coordinates":[127.213614,37.267053]},"properties":{"id":1335,"name":"둔전 Dunjeon","short_name":"Dunjeon","long_name":"둔전","line":"SeoulLightRailTransitEverline","order":31},"id":1335},{"type":"Feature","geometry":{"type":"Point","coordinates":[126.891111,37.509167]},"properties":{"id":31,"name":"신도림 Sindorim","short_name":"Sindorim","long_name":"신도림","line":"SeoulSubway1Hoseon","order":30},"id":31},{"type":"Feature","geometry":{"type":"Point","coordinates":[127.007917,37.491897]},"properties":{"id":417,"name":"서초 Seocho","short_name":"Seocho","long_name":"서초","line":"SeoulSubway2Hoseon","order":30},"id":417},{"type":"Feature","geometry":{"type":"Point","coordinates":[126.950614,37.38965]},"properties":{"id":510,"name":"범계 Beomgye","short_name":"Beomgye","long_name":"범계","line":"SeoulSubway4Hoseon","order":30},"id":510},{"type":"Feature","geometry":{"type":"Point","coordinates":[127.038632,37.56131]},"properties":{"id":657,"name":"왕십리 Wangsimni","short_name":"Wangsimni","long_name":"왕십리","line":"SeoulSubway5Hoseon","order":30},"id":657},{"type":"Feature","geometry":{"type":"Point","coordinates":[127.029005,37.586272]},"properties":{"id":752,"name":"안암(고대병원앞) Anam","short_name":") Anam","long_name":"안암(고대병원앞","line":"SeoulSubway6Hoseon","order":30},"id":752},{"type":"Feature","geometry":{"type":"Point","coordinates":[126.94791,37.502834]},"properties":{"id":845,"name":"상도 Sangdo","short_name":"Sangdo","long_name":"상도","line":"SeoulSubway7Hoseon","order":30},"id":845},{"type":"Feature","geometry":{"type":"Point","coordinates":[126.861939,37.557402]},"properties":{"id":916,"name":"증미 Jeungmi","short_name":"Jeungmi","long_name":"증미","line":"SeoulSubway9Hoseon","order":30},"id":916},{"type":"Feature","geometry":{"type":"Point","coordinates":[127.038632,37.56131]},"properties":{"id":965,"name":"왕십리 Wangsimni","short_name":"Wangsimni","long_name":"왕십리","line":"SeoulMTRGyeongyijungangseon","order":30},"id":965},{"type":"Feature","geometry":{"type":"Point","coordinates":[127.078934,37.259489]},"properties":{"id":1186,"name":"청명 Cheongmyeong","short_name":"Cheongmyeong","long_name":"청명","line":"SeoulMTRSuinbundangseon","order":30},"id":1186},{"type":"Feature","geometry":{"type":"Point","coordinates":[126.907778,37.515556]},"properties":{"id":30,"name":"영등포 Yeongdeungpo","short_name":"Yeongdeungpo","long_name":"영등포","line":"SeoulSubway1Hoseon","order":29},"id":30},{"type":"Feature","geometry":{"type":"Point","coordinates":[126.997596,37.481426]},"properties":{"id":416,"name":"방배 Bangbae","short_name":"Bangbae","long_name":"방배","line":"SeoulSubway2Hoseon","order":29},"id":416},{"type":"Feature","geometry":{"type":"Point","coordinates":[126.963847,37.394297]},"properties":{"id":509,"name":"평촌 Pyeongchon","short_name":"Pyeongchon","long_name":"평촌","line":"SeoulSubway4Hoseon","order":29},"id":509},{"type":"Feature","geometry":{"type":"Point","coordinates":[127.029476,37.557322]},"properties":{"id":656,"name":"행당 Haengdang","short_name":"Haengdang","long_name":"행당","line":"SeoulSubway5Hoseon","order":29},"id":656},{"type":"Feature","geometry":{"type":"Point","coordinates":[127.019351,37.585274]},"properties":{"id":751,"name":"보문 Bomun","short_name":"Bomun","long_name":"보문","line":"SeoulSubway6Hoseon","order":29},"id":751},{"type":"Feature","geometry":{"type":"Point","coordinates":[126.953822,37.496029]},"properties":{"id":844,"name":"숭실대입구(살피재) Soongsil University","short_name":") Soongsil University","long_name":"숭실대입구(살피재","line":"SeoulSubway7Hoseon","order":29},"id":844},{"type":"Feature","geometry":{"type":"Point","coordinates":[126.865689,37.550632]},"properties":{"id":915,"name":"등촌 Deungchon","short_name":"Deungchon","long_name":"등촌","line":"SeoulSubway9Hoseon","order":29},"id":915},{"type":"Feature","geometry":{"type":"Point","coordinates":[127.035183,37.550833]},"properties":{"id":964,"name":"응봉 Eungbong","short_name":"Eungbong","long_name":"응봉","line":"SeoulMTRGyeongyijungangseon","order":29},"id":964},{"type":"Feature","geometry":{"type":"Point","coordinates":[127.108718,37.261797]},"properties":{"id":1185,"name":"상갈(루터대학교) Sanggal","short_name":") Sanggal","long_name":"상갈(루터대학교","line":"SeoulMTRSuinbundangseon","order":29},"id":1185},{"type":"Feature","geometry":{"type":"Point","coordinates":[126.62597,37.407143]},"properties":{"id":1264,"name":"송도달빛축제공원 Songdo Moonlight Festival Park","short_name":"Songdo Moonlight Festival Park","long_name":"송도달빛축제공원","line":"SeoulIncheonMetroInceon1Hoseon","order":29},"id":1264},{"type":"Feature","geometry":{"type":"Point","coordinates":[126.9175,37.516944]},"properties":{"id":29,"name":"신길 Singil","short_name":"Singil","long_name":"신길","line":"SeoulSubway1Hoseon","order":28},"id":29},{"type":"Feature","geometry":{"type":"Point","coordinates":[126.981544,37.476538]},"properties":{"id":415,"name":"사당 Sadang","short_name":"Sadang","long_name":"사당","line":"SeoulSubway2Hoseon","order":28},"id":415},{"type":"Feature","geometry":{"type":"Point","coordinates":[126.976694,37.402]},"properties":{"id":508,"name":"인덕원 Indeogwon","short_name":"Indeogwon","long_name":"인덕원","line":"SeoulSubway4Hoseon","order":28},"id":508},{"type":"Feature","geometry":{"type":"Point","coordinates":[127.020331,37.554548]},"properties":{"id":655,"name":"신금호 Singeumho","short_name":"Singeumho","long_name":"신금호","line":"SeoulSubway5Hoseon","order":28},"id":655},{"type":"Feature","geometry":{"type":"Point","coordinates":[127.015241,37.579661]},"properties":{"id":750,"name":"창신 Changsin","short_name":"Changsin","long_name":"창신","line":"SeoulSubway6Hoseon","order":28},"id":750},{"type":"Feature","geometry":{"type":"Point","coordinates":[126.971251,37.484596]},"properties":{"id":843,"name":"남성 Namseong","short_name":"Namseong","long_name":"남성","line":"SeoulSubway7Hoseon","order":28},"id":843},{"type":"Feature","geometry":{"type":"Point","coordinates":[126.874916,37.546936]},"properties":{"id":914,"name":"염창 Yeomchang","short_name":"Yeomchang","long_name":"염창","line":"SeoulSubway9Hoseon","order":28},"id":914},{"type":"Feature","geometry":{"type":"Point","coordinates":[127.017269,37.541684]},"properties":{"id":963,"name":"옥수 Oksu","short_name":"Oksu","long_name":"옥수","line":"SeoulMTRGyeongyijungangseon","order":28},"id":963},{"type":"Feature","geometry":{"type":"Point","coordinates":[127.115958,37.275373]},"properties":{"id":1184,"name":"기흥(백남준아트센터) Giheung (Nam June Paik Art Center)","short_name":") Giheung (Nam June Paik Art Center)","long_name":"기흥(백남준아트센터","line":"SeoulMTRSuinbundangseon","order":28},"id":1184},{"type":"Feature","geometry":{"type":"Point","coordinates":[126.630347,37.399907]},"properties":{"id":1263,"name":"국제업무지구 Intl. Business District","short_name":"Intl. Business District","long_name":"국제업무지구","line":"SeoulIncheonMetroInceon1Hoseon","order":28},"id":1263},{"type":"Feature","geometry":{"type":"Point","coordinates":[127.034965,37.739266]},"properties":{"id":1366,"name":"의정부시청 Uijeongbu City Hall","short_name":"Uijeongbu City Hall","long_name":"의정부시청","line":"SeoulLightRailTransitUijeongbu","order":28},"id":1366},{"type":"Feature","geometry":{"type":"Point","coordinates":[126.92688,37.513561]},"properties":{"id":28,"name":"대방 Daebang","short_name":"Daebang","long_name":"대방","line":"SeoulSubway1Hoseon","order":27},"id":28},{"type":"Feature","geometry":{"type":"Point","coordinates":[126.963693,37.47693]},"properties":{"id":414,"name":"낙성대 Nakseongdae","short_name":"Nakseongdae","long_name":"낙성대","line":"SeoulSubway2Hoseon","order":27},"id":414},{"type":"Feature","geometry":{"type":"Point","coordinates":[126.989917,37.426472]},"properties":{"id":507,"name":"정부과천청사 Government Complex Gwacheon","short_name":"Government Complex Gwacheon","long_name":"정부과천청사","line":"SeoulSubway4Hoseon","order":27},"id":507},{"type":"Feature","geometry":{"type":"Point","coordinates":[127.013639,37.560276]},"properties":{"id":654,"name":"청구 Cheonggu","short_name":"Cheonggu","long_name":"청구","line":"SeoulSubway5Hoseon","order":27},"id":654},{"type":"Feature","geometry":{"type":"Point","coordinates":[127.01648,37.573197]},"properties":{"id":749,"name":"동묘앞 Dongmyo","short_name":"Dongmyo","long_name":"동묘앞","line":"SeoulSubway6Hoseon","order":27},"id":749},{"type":"Feature","geometry":{"type":"Point","coordinates":[126.981655,37.485307]},"properties":{"id":842,"name":"총신대입구(이수) Isu","short_name":") Isu","long_name":"총신대입구(이수","line":"SeoulSubway7Hoseon","order":27},"id":842},{"type":"Feature","geometry":{"type":"Point","coordinates":[126.88308,37.544277]},"properties":{"id":913,"name":"신목동 Sinmokdong","short_name":"Sinmokdong","long_name":"신목동","line":"SeoulSubway9Hoseon","order":27},"id":913},{"type":"Feature","geometry":{"type":"Point","coordinates":[127.008281,37.52909]},"properties":{"id":962,"name":"한남 Hannam","short_name":"Hannam","long_name":"한남","line":"SeoulMTRGyeongyijungangseon","order":27},"id":962},{"type":"Feature","geometry":{"type":"Point","coordinates":[127.111313,37.286102]},"properties":{"id":1183,"name":"신갈 Singal","short_name":"Singal","long_name":"신갈","line":"SeoulMTRSuinbundangseon","order":27},"id":1183},{"type":"Feature","geometry":{"type":"Point","coordinates":[126.634729,37.393054]},"properties":{"id":1262,"name":"센트럴파크 Central Park","short_name":"Central Park","long_name":"센트럴파크","line":"SeoulIncheonMetroInceon1Hoseon","order":27},"id":1262},{"type":"Feature","geometry":{"type":"Point","coordinates":[126.943074,37.51416]},"properties":{"id":27,"name":"노량진 Noryangjin","short_name":"Noryangjin","long_name":"노량진","line":"SeoulSubway1Hoseon","order":26},"id":27},{"type":"Feature","geometry":{"type":"Point","coordinates":[126.952739,37.481247]},"properties":{"id":413,"name":"서울대입구(관악구청) Seoul National University","short_name":") Seoul National University","long_name":"서울대입구(관악구청","line":"SeoulSubway2Hoseon","order":26},"id":413},{"type":"Feature","geometry":{"type":"Point","coordinates":[126.996931,37.432989]},"properties":{"id":506,"name":"과천 Gwacheon","short_name":"Gwacheon","long_name":"과천","line":"SeoulSubway4Hoseon","order":26},"id":506},{"type":"Feature","geometry":{"type":"Point","coordinates":[127.009054,37.565613]},"properties":{"id":653,"name":"동대문역사문화공원 Dongdaemun History  Culture Park","short_name":"Dongdaemun History  Culture Park","long_name":"동대문역사문화공원","line":"SeoulSubway5Hoseon","order":26},"id":653},{"type":"Feature","geometry":{"type":"Point","coordinates":[127.019614,37.56564]},"properties":{"id":748,"name":"신당 Sindang","short_name":"Sindang","long_name":"신당","line":"SeoulSubway6Hoseon","order":26},"id":748},{"type":"Feature","geometry":{"type":"Point","coordinates":[126.993513,37.487618]},"properties":{"id":841,"name":"내방 Naebang","short_name":"Naebang","long_name":"내방","line":"SeoulSubway7Hoseon","order":26},"id":841},{"type":"Feature","geometry":{"type":"Point","coordinates":[126.893525,37.53802]},"properties":{"id":912,"name":"선유도 Seonyudo","short_name":"Seonyudo","long_name":"선유도","line":"SeoulSubway9Hoseon","order":26},"id":912},{"type":"Feature","geometry":{"type":"Point","coordinates":[126.989531,37.519911]},"properties":{"id":961,"name":"서빙고 Seobinggo","short_name":"Seobinggo","long_name":"서빙고","line":"SeoulMTRGyeongyijungangseon","order":26},"id":961},{"type":"Feature","geometry":{"type":"Point","coordinates":[127.105664,37.298969]},"properties":{"id":1182,"name":"구성 Guseong","short_name":"Guseong","long_name":"구성","line":"SeoulMTRSuinbundangseon","order":26},"id":1182},{"type":"Feature","geometry":{"type":"Point","coordinates":[126.639484,37.386007]},"properties":{"id":1261,"name":"인천대입구 Incheon Nat'l Univ.","short_name":"Incheon Nat'l Univ.","long_name":"인천대입구","line":"SeoulIncheonMetroInceon1Hoseon","order":26},"id":1261},{"type":"Feature","geometry":{"type":"Point","coordinates":[126.759675,37.439514]},"properties":{"id":1291,"name":"운연 Unyeon","short_name":"Unyeon","long_name":"운연","line":"CM_SeoulIncheonMetro2_inceon2hoseon","order":26},"id":1291},{"type":"Feature","geometry":{"type":"Point","coordinates":[126.964541,37.529522]},"properties":{"id":26,"name":"용산 Yongsan","short_name":"Yongsan","long_name":"용산","line":"SeoulSubway1Hoseon","order":25},"id":26},{"type":"Feature","geometry":{"type":"Point","coordinates":[126.941892,37.482362]},"properties":{"id":412,"name":"봉천 Bongcheon","short_name":"Bongcheon","long_name":"봉천","line":"SeoulSubway2Hoseon","order":25},"id":412},{"type":"Feature","geometry":{"type":"Point","coordinates":[127.006511,37.435639]},"properties":{"id":505,"name":"대공원 Seoul Grand Park","short_name":"Seoul Grand Park","long_name":"대공원","line":"SeoulSubway4Hoseon","order":25},"id":505},{"type":"Feature","geometry":{"type":"Point","coordinates":[126.997817,37.566595]},"properties":{"id":652,"name":"을지로4가 Euljiro 4(sa)-ga","short_name":"Euljiro 4(sa)-ga","long_name":"을지로4가","line":"SeoulSubway5Hoseon","order":25},"id":652},{"type":"Feature","geometry":{"type":"Point","coordinates":[127.013639,37.560276]},"properties":{"id":747,"name":"청구 Cheonggu","short_name":"Cheonggu","long_name":"청구","line":"SeoulSubway6Hoseon","order":25},"id":747},{"type":"Feature","geometry":{"type":"Point","coordinates":[127.004916,37.504891]},"properties":{"id":840,"name":"고속터미널 Express Bus Terminal","short_name":"Express Bus Terminal","long_name":"고속터미널","line":"SeoulSubway7Hoseon","order":25},"id":840},{"type":"Feature","geometry":{"type":"Point","coordinates":[126.902767,37.534946]},"properties":{"id":911,"name":"당산 Dangsan","short_name":"Dangsan","long_name":"당산","line":"SeoulSubway9Hoseon","order":25},"id":911},{"type":"Feature","geometry":{"type":"Point","coordinates":[126.974733,37.522295]},"properties":{"id":960,"name":"이촌(국립중앙박물관) Ichon(National Museum of Korea)","short_name":") Ichon(National Museum of Korea)","long_name":"이촌(국립중앙박물관","line":"SeoulMTRGyeongyijungangseon","order":25},"id":960},{"type":"Feature","geometry":{"type":"Point","coordinates":[127.108196,37.312752]},"properties":{"id":1181,"name":"보정 Bojeong","short_name":"Bojeong","long_name":"보정","line":"SeoulMTRSuinbundangseon","order":25},"id":1181},{"type":"Feature","geometry":{"type":"Point","coordinates":[126.645168,37.378384]},"properties":{"id":1260,"name":"지식정보단지 BIT Zone","short_name":"BIT Zone","long_name":"지식정보단지","line":"SeoulIncheonMetroInceon1Hoseon","order":25},"id":1260},{"type":"Feature","geometry":{"type":"Point","coordinates":[126.75284,37.448501]},"properties":{"id":1290,"name":"인천대공원 Incheon Grand Park","short_name":"Incheon Grand Park","long_name":"인천대공원","line":"CM_SeoulIncheonMetro2_inceon2hoseon","order":25},"id":1290},{"type":"Feature","geometry":{"type":"Point","coordinates":[126.97133,37.541475]},"properties":{"id":25,"name":"남영 Namyeong","short_name":"Namyeong","long_name":"남영","line":"SeoulSubway1Hoseon","order":24},"id":25},{"type":"Feature","geometry":{"type":"Point","coordinates":[126.929715,37.484201]},"properties":{"id":411,"name":"신림 Sillim","short_name":"Sillim","long_name":"신림","line":"SeoulSubway2Hoseon","order":24},"id":411},{"type":"Feature","geometry":{"type":"Point","coordinates":[127.007839,37.444031]},"properties":{"id":504,"name":"경마공원 Seoul Racecourse Park","short_name":"Seoul Racecourse Park","long_name":"경마공원","line":"SeoulSubway4Hoseon","order":24},"id":504},{"type":"Feature","geometry":{"type":"Point","coordinates":[126.991847,37.570406]},"properties":{"id":651,"name":"종로3가 Jongno 3(sam)-ga","short_name":"Jongno 3(sam)-ga","long_name":"종로3가","line":"SeoulSubway5Hoseon","order":24},"id":651},{"type":"Feature","geometry":{"type":"Point","coordinates":[127.010541,37.554867]},"properties":{"id":746,"name":"약수 Yaksu","short_name":"Yaksu","long_name":"약수","line":"SeoulSubway6Hoseon","order":24},"id":746},{"type":"Feature","geometry":{"type":"Point","coordinates":[127.011727,37.508178]},"properties":{"id":839,"name":"반포 Banpo","short_name":"Banpo","long_name":"반포","line":"SeoulSubway7Hoseon","order":24},"id":839},{"type":"Feature","geometry":{"type":"Point","coordinates":[127.120472,37.530351]},"properties":{"id":870,"name":"강동구청 Gangdong-gu Office","short_name":"Gangdong-gu Office","long_name":"강동구청","line":"SeoulSubway8Hoseon","order":24},"id":870},{"type":"Feature","geometry":{"type":"Point","coordinates":[126.917874,37.528105]},"properties":{"id":910,"name":"국회의사당 National Assembly","short_name":"National Assembly","long_name":"국회의사당","line":"SeoulSubway9Hoseon","order":24},"id":910},{"type":"Feature","geometry":{"type":"Point","coordinates":[126.964541,37.529522]},"properties":{"id":959,"name":"용산 Yongsan","short_name":"Yongsan","long_name":"용산","line":"SeoulMTRGyeongyijungangseon","order":24},"id":959},{"type":"Feature","geometry":{"type":"Point","coordinates":[126.656365,37.382268]},"properties":{"id":1259,"name":"테크노파크 Technopark","short_name":"Technopark","long_name":"테크노파크","line":"SeoulIncheonMetroInceon1Hoseon","order":24},"id":1259},{"type":"Feature","geometry":{"type":"Point","coordinates":[126.737155,37.448126]},"properties":{"id":1289,"name":"남동구청 Namdong-gu Office","short_name":"Namdong-gu Office","long_name":"남동구청","line":"CM_SeoulIncheonMetro2_inceon2hoseon","order":24},"id":1289},{"type":"Feature","geometry":{"type":"Point","coordinates":[126.972135,37.556228]},"properties":{"id":24,"name":"서울역 Seoul Station","short_name":"Seoul Station","long_name":"서울역","line":"SeoulSubway1Hoseon","order":23},"id":24},{"type":"Feature","geometry":{"type":"Point","coordinates":[126.913149,37.487462]},"properties":{"id":410,"name":"신대방 Sindaebang","short_name":"Sindaebang","long_name":"신대방","line":"SeoulSubway2Hoseon","order":23},"id":410},{"type":"Feature","geometry":{"type":"Point","coordinates":[127.002139,37.451861]},"properties":{"id":503,"name":"선바위 Seonbawi","short_name":"Seonbawi","long_name":"선바위","line":"SeoulSubway4Hoseon","order":23},"id":503},{"type":"Feature","geometry":{"type":"Point","coordinates":[126.97717,37.571525]},"properties":{"id":650,"name":"광화문(세종문화회관) Gwanghwamun","short_name":") Gwanghwamun","long_name":"광화문(세종문화회관","line":"SeoulSubway5Hoseon","order":23},"id":650},{"type":"Feature","geometry":{"type":"Point","coordinates":[127.007055,37.548013]},"properties":{"id":745,"name":"버티고개 Beotigogae","short_name":"Beotigogae","long_name":"버티고개","line":"SeoulSubway6Hoseon","order":23},"id":745},{"type":"Feature","geometry":{"type":"Point","coordinates":[127.021415,37.511093]},"properties":{"id":838,"name":"논현 Nonhyeon","short_name":"Nonhyeon","long_name":"논현","line":"SeoulSubway7Hoseon","order":23},"id":838},{"type":"Feature","geometry":{"type":"Point","coordinates":[126.924357,37.521747]},"properties":{"id":909,"name":"여의도 Yeouido","short_name":"Yeouido","long_name":"여의도","line":"SeoulSubway9Hoseon","order":23},"id":909},{"type":"Feature","geometry":{"type":"Point","coordinates":[126.961384,37.539233]},"properties":{"id":958,"name":"효창공원앞 Hyochang park","short_name":"Hyochang park","long_name":"효창공원앞","line":"SeoulMTRGyeongyijungangseon","order":23},"id":958},{"type":"Feature","geometry":{"type":"Point","coordinates":[127.717299,37.884621]},"properties":{"id":1074,"name":"춘천(한림대) Chuncheon","short_name":") Chuncheon","long_name":"춘천(한림대","line":"SeoulMTRGyeongcunseon","order":23},"id":1074},{"type":"Feature","geometry":{"type":"Point","coordinates":[127.110278,37.325]},"properties":{"id":1155,"name":"죽전(단국대) Jukjeon","short_name":") Jukjeon","long_name":"죽전(단국대","line":"SeoulMTRSuinbundangseon","order":23},"id":1155},{"type":"Feature","geometry":{"type":"Point","coordinates":[126.661673,37.387855]},"properties":{"id":1258,"name":"캠퍼스타운 Campus Town","short_name":"Campus Town","long_name":"캠퍼스타운","line":"SeoulIncheonMetroInceon1Hoseon","order":23},"id":1258},{"type":"Feature","geometry":{"type":"Point","coordinates":[126.732466,37.454872]},"properties":{"id":1288,"name":"만수 Mansu","short_name":"Mansu","long_name":"만수","line":"CM_SeoulIncheonMetro2_inceon2hoseon","order":23},"id":1288},{"type":"Feature","geometry":{"type":"Point","coordinates":[126.977088,37.565715]},"properties":{"id":23,"name":"시청 City Hall","short_name":"City Hall","long_name":"시청","line":"SeoulSubway1Hoseon","order":22},"id":23},{"type":"Feature","geometry":{"type":"Point","coordinates":[126.901401,37.485266]},"properties":{"id":409,"name":"구로디지털단지 Guro Digital Complex","short_name":"Guro Digital Complex","long_name":"구로디지털단지","line":"SeoulSubway2Hoseon","order":22},"id":409},{"type":"Feature","geometry":{"type":"Point","coordinates":[126.989134,37.463873]},"properties":{"id":502,"name":"남태령 Namtaeryeong","short_name":"Namtaeryeong","long_name":"남태령","line":"SeoulSubway4Hoseon","order":22},"id":502},{"type":"Feature","geometry":{"type":"Point","coordinates":[126.966641,37.565773]},"properties":{"id":649,"name":"서대문 Seodaemun","short_name":"Seodaemun","long_name":"서대문","line":"SeoulSubway5Hoseon","order":22},"id":649},{"type":"Feature","geometry":{"type":"Point","coordinates":[127.001725,37.539631]},"properties":{"id":744,"name":"한강진 Hangangjin","short_name":"Hangangjin","long_name":"한강진","line":"SeoulSubway6Hoseon","order":22},"id":744},{"type":"Feature","geometry":{"type":"Point","coordinates":[127.031656,37.514229]},"properties":{"id":837,"name":"학동 Hak-dong","short_name":"Hak-dong","long_name":"학동","line":"SeoulSubway7Hoseon","order":22},"id":837},{"type":"Feature","geometry":{"type":"Point","coordinates":[126.929399,37.517097]},"properties":{"id":908,"name":"샛강 Saetgang","short_name":"Saetgang","long_name":"샛강","line":"SeoulSubway9Hoseon","order":22},"id":908},{"type":"Feature","geometry":{"type":"Point","coordinates":[126.951372,37.544431]},"properties":{"id":957,"name":"공덕 Gongdeok","short_name":"Gongdeok","long_name":"공덕","line":"SeoulMTRGyeongyijungangseon","order":22},"id":957},{"type":"Feature","geometry":{"type":"Point","coordinates":[127.723849,37.864004]},"properties":{"id":1073,"name":"남춘천(강원대) Namchuncheon","short_name":") Namchuncheon","long_name":"남춘천(강원대","line":"SeoulMTRGyeongcunseon","order":22},"id":1073},{"type":"Feature","geometry":{"type":"Point","coordinates":[127.108942,37.339824]},"properties":{"id":1154,"name":"오리 Ori","short_name":"Ori","long_name":"오리","line":"SeoulMTRSuinbundangseon","order":22},"id":1154},{"type":"Feature","geometry":{"type":"Point","coordinates":[126.674005,37.397878]},"properties":{"id":1257,"name":"동막 Dongmak","short_name":"Dongmak","long_name":"동막","line":"SeoulIncheonMetroInceon1Hoseon","order":22},"id":1257},{"type":"Feature","geometry":{"type":"Point","coordinates":[126.720257,37.455791]},"properties":{"id":1287,"name":"모래내시장 Moraenae Market","short_name":"Moraenae Market","long_name":"모래내시장","line":"CM_SeoulIncheonMetro2_inceon2hoseon","order":22},"id":1287},{"type":"Feature","geometry":{"type":"Point","coordinates":[126.982923,37.570161]},"properties":{"id":22,"name":"종각 Jonggak","short_name":"Jonggak","long_name":"종각","line":"SeoulSubway1Hoseon","order":21},"id":22},{"type":"Feature","geometry":{"type":"Point","coordinates":[126.894932,37.493243]},"properties":{"id":408,"name":"대림(구로구청) Daerim","short_name":") Daerim","long_name":"대림(구로구청","line":"SeoulSubway2Hoseon","order":21},"id":408},{"type":"Feature","geometry":{"type":"Point","coordinates":[126.981544,37.476538]},"properties":{"id":501,"name":"사당 Sadang","short_name":"Sadang","long_name":"사당","line":"SeoulSubway4Hoseon","order":21},"id":501},{"type":"Feature","geometry":{"type":"Point","coordinates":[126.964378,37.559704]},"properties":{"id":648,"name":"충정로(경기대입구) Chungjeongno","short_name":") Chungjeongno","long_name":"충정로(경기대입구","line":"SeoulSubway5Hoseon","order":21},"id":648},{"type":"Feature","geometry":{"type":"Point","coordinates":[126.994302,37.534488]},"properties":{"id":743,"name":"이태원 Itaewon","short_name":"Itaewon","long_name":"이태원","line":"SeoulSubway6Hoseon","order":21},"id":743},{"type":"Feature","geometry":{"type":"Point","coordinates":[127.041255,37.517179]},"properties":{"id":836,"name":"강남구청 Gangnam-gu Office","short_name":"Gangnam-gu Office","long_name":"강남구청","line":"SeoulSubway7Hoseon","order":21},"id":836},{"type":"Feature","geometry":{"type":"Point","coordinates":[126.943074,37.51416]},"properties":{"id":907,"name":"노량진 Noryangjin","short_name":"Noryangjin","long_name":"노량진","line":"SeoulSubway9Hoseon","order":21},"id":907},{"type":"Feature","geometry":{"type":"Point","coordinates":[126.935711,37.551881]},"properties":{"id":956,"name":"서강대 Sogang Univ.","short_name":"Sogang Univ.","long_name":"서강대","line":"SeoulMTRGyeongyijungangseon","order":21},"id":956},{"type":"Feature","geometry":{"type":"Point","coordinates":[126.972135,37.556228]},"properties":{"id":997,"name":"서울역 Seoul Station","short_name":"Seoul Station","long_name":"서울역","line":"SeoulMTRGyeongyijungangseon","order":21},"id":997},{"type":"Feature","geometry":{"type":"Point","coordinates":[127.71434,37.818466]},"properties":{"id":1072,"name":"김유정 Gimyujeong","short_name":"Gimyujeong","long_name":"김유정","line":"SeoulMTRGyeongcunseon","order":21},"id":1072},{"type":"Feature","geometry":{"type":"Point","coordinates":[127.108993,37.350049]},"properties":{"id":1153,"name":"미금(분당서울대병원) Migeum","short_name":") Migeum","long_name":"미금(분당서울대병원","line":"SeoulMTRSuinbundangseon","order":21},"id":1153},{"type":"Feature","geometry":{"type":"Point","coordinates":[126.681015,37.404737]},"properties":{"id":1256,"name":"동춘 Dongchun","short_name":"Dongchun","long_name":"동춘","line":"SeoulIncheonMetroInceon1Hoseon","order":21},"id":1256},{"type":"Feature","geometry":{"type":"Point","coordinates":[126.710408,37.456762]},"properties":{"id":1286,"name":"석천사거리 Seokcheon Sageori","short_name":"Seokcheon Sageori","long_name":"석천사거리","line":"CM_SeoulIncheonMetro2_inceon2hoseon","order":21},"id":1286},{"type":"Feature","geometry":{"type":"Point","coordinates":[126.991847,37.570406]},"properties":{"id":21,"name":"종로3가 Jongno 3(sam)-ga","short_name":"Jongno 3(sam)-ga","long_name":"종로3가","line":"SeoulSubway1Hoseon","order":20},"id":21},{"type":"Feature","geometry":{"type":"Point","coordinates":[126.981989,37.486263]},"properties":{"id":500,"name":"총신대입구(이수) Isu(Chongshin University)","short_name":") Isu(Chongshin University)","long_name":"총신대입구(이수","line":"SeoulSubway4Hoseon","order":20},"id":500},{"type":"Feature","geometry":{"type":"Point","coordinates":[126.95682,37.553736]},"properties":{"id":647,"name":"애오개 Aeogae","short_name":"Aeogae","long_name":"애오개","line":"SeoulSubway5Hoseon","order":20},"id":647},{"type":"Feature","geometry":{"type":"Point","coordinates":[126.986695,37.534675]},"properties":{"id":742,"name":"녹사평(용산구청) Noksapyeong","short_name":") Noksapyeong","long_name":"녹사평(용산구청","line":"SeoulSubway6Hoseon","order":20},"id":742},{"type":"Feature","geometry":{"type":"Point","coordinates":[127.05335,37.519365]},"properties":{"id":835,"name":"청담 Cheongdam","short_name":"Cheongdam","long_name":"청담","line":"SeoulSubway7Hoseon","order":20},"id":835},{"type":"Feature","geometry":{"type":"Point","coordinates":[126.953222,37.512887]},"properties":{"id":906,"name":"노들 Nodeul","short_name":"Nodeul","long_name":"노들","line":"SeoulSubway9Hoseon","order":20},"id":906},{"type":"Feature","geometry":{"type":"Point","coordinates":[126.923708,37.55679]},"properties":{"id":955,"name":"홍대입구 Hongik Univ.","short_name":"Hongik Univ.","long_name":"홍대입구","line":"SeoulMTRGyeongyijungangseon","order":20},"id":955},{"type":"Feature","geometry":{"type":"Point","coordinates":[126.942597,37.559733]},"properties":{"id":996,"name":"신촌 Sinchon","short_name":"Sinchon","long_name":"신촌","line":"SeoulMTRGyeongyijungangseon","order":20},"id":996},{"type":"Feature","geometry":{"type":"Point","coordinates":[127.634146,37.805723]},"properties":{"id":1071,"name":"강촌 Gangchon","short_name":"Gangchon","long_name":"강촌","line":"SeoulMTRGyeongcunseon","order":20},"id":1071},{"type":"Feature","geometry":{"type":"Point","coordinates":[127.10807,37.365994]},"properties":{"id":1152,"name":"정자 Jeongja","short_name":"Jeongja","long_name":"정자","line":"SeoulMTRSuinbundangseon","order":20},"id":1152},{"type":"Feature","geometry":{"type":"Point","coordinates":[126.687869,37.412333]},"properties":{"id":1255,"name":"원인재 Woninjae","short_name":"Woninjae","long_name":"원인재","line":"SeoulIncheonMetroInceon1Hoseon","order":20},"id":1255},{"type":"Feature","geometry":{"type":"Point","coordinates":[126.702143,37.457263]},"properties":{"id":1285,"name":"인천시청 Incheon City Hall","short_name":"Incheon City Hall","long_name":"인천시청","line":"CM_SeoulIncheonMetro2_inceon2hoseon","order":20},"id":1285},{"type":"Feature","geometry":{"type":"Point","coordinates":[127.043399,37.737206]},"properties":{"id":1365,"name":"경전철의정부 Lrt Uijeongbu","short_name":"Lrt Uijeongbu","long_name":"경전철의정부","line":"SeoulLightRailTransitUijeongbu","order":20},"id":1365},{"type":"Feature","geometry":{"type":"Point","coordinates":[127.001849,37.570926]},"properties":{"id":20,"name":"종로5가 Jongno 5(o)-ga","short_name":"Jongno 5(o)-ga","long_name":"종로5가","line":"SeoulSubway1Hoseon","order":19},"id":20},{"type":"Feature","geometry":{"type":"Point","coordinates":[126.89476,37.517933]},"properties":{"id":406,"name":"문래 Mullae","short_name":"Mullae","long_name":"문래","line":"SeoulSubway2Hoseon","order":19},"id":406},{"type":"Feature","geometry":{"type":"Point","coordinates":[126.980347,37.502852]},"properties":{"id":499,"name":"동작(현충원) Dongjak(Seoul National Cemetery)","short_name":") Dongjak(Seoul National Cemetery)","long_name":"동작(현충원","line":"SeoulSubway4Hoseon","order":19},"id":499},{"type":"Feature","geometry":{"type":"Point","coordinates":[126.951372,37.544431]},"properties":{"id":646,"name":"공덕 Gongdeok","short_name":"Gongdeok","long_name":"공덕","line":"SeoulSubway5Hoseon","order":19},"id":646},{"type":"Feature","geometry":{"type":"Point","coordinates":[126.9726,37.534075]},"properties":{"id":741,"name":"삼각지 Samgakji","short_name":"Samgakji","long_name":"삼각지","line":"SeoulSubway6Hoseon","order":19},"id":741},{"type":"Feature","geometry":{"type":"Point","coordinates":[127.066704,37.53154]},"properties":{"id":834,"name":"뚝섬유원지 Ttukseom Park","short_name":"Ttukseom Park","long_name":"뚝섬유원지","line":"SeoulSubway7Hoseon","order":19},"id":834},{"type":"Feature","geometry":{"type":"Point","coordinates":[126.963708,37.50877]},"properties":{"id":905,"name":"흑석(중앙대입구) Heukseok(Chungang University)","short_name":") Heukseok(Chungang University)","long_name":"흑석(중앙대입구","line":"SeoulSubway9Hoseon","order":19},"id":905},{"type":"Feature","geometry":{"type":"Point","coordinates":[126.915487,37.568491]},"properties":{"id":954,"name":"가좌 Gajwa","short_name":"Gajwa","long_name":"가좌","line":"SeoulMTRGyeongyijungangseon","order":19},"id":954},{"type":"Feature","geometry":{"type":"Point","coordinates":[127.58909,37.830821]},"properties":{"id":1070,"name":"백양리(엘리시안강촌) Baegyang-ri","short_name":") Baegyang-ri","long_name":"백양리(엘리시안강촌","line":"SeoulMTRGyeongcunseon","order":19},"id":1070},{"type":"Feature","geometry":{"type":"Point","coordinates":[127.114279,37.378444]},"properties":{"id":1151,"name":"수내(한국잡월드) Sunae","short_name":") Sunae","long_name":"수내(한국잡월드","line":"SeoulMTRSuinbundangseon","order":19},"id":1151},{"type":"Feature","geometry":{"type":"Point","coordinates":[126.693863,37.41804]},"properties":{"id":1254,"name":"신연수 Sinyeonsu","short_name":"Sinyeonsu","long_name":"신연수","line":"SeoulIncheonMetroInceon1Hoseon","order":19},"id":1254},{"type":"Feature","geometry":{"type":"Point","coordinates":[126.693113,37.457563]},"properties":{"id":1284,"name":"석바위시장 Seokbawi Market","short_name":"Seokbawi Market","long_name":"석바위시장","line":"CM_SeoulIncheonMetro2_inceon2hoseon","order":19},"id":1284},{"type":"Feature","geometry":{"type":"Point","coordinates":[127.01093,37.571687]},"properties":{"id":19,"name":"동대문 Dongdaemun","short_name":"Dongdaemun","long_name":"동대문","line":"SeoulSubway1Hoseon","order":18},"id":19},{"type":"Feature","geometry":{"type":"Point","coordinates":[126.89661,37.525706]},"properties":{"id":405,"name":"영등포구청 Yeongdeungpo-gu Office","short_name":"Yeongdeungpo-gu Office","long_name":"영등포구청","line":"SeoulSubway2Hoseon","order":18},"id":405},{"type":"Feature","geometry":{"type":"Point","coordinates":[126.974733,37.522295]},"properties":{"id":498,"name":"이촌(국립중앙박물관) Ichon(National Museum of Korea)","short_name":") Ichon(National Museum of Korea)","long_name":"이촌(국립중앙박물관","line":"SeoulSubway4Hoseon","order":18},"id":498},{"type":"Feature","geometry":{"type":"Point","coordinates":[126.945932,37.539574]},"properties":{"id":645,"name":"마포 Mapo","short_name":"Mapo","long_name":"마포","line":"SeoulSubway5Hoseon","order":18},"id":645},{"type":"Feature","geometry":{"type":"Point","coordinates":[126.961384,37.539233]},