{
  "type": "FeatureCollection",
  "features": [
    {
      "type": "Feature",
      "geometry": {
        "type": "Point",
        "coordinates": [127.046111, 37.738056]
      },
      "properties": {
        "id": 1,
        "name": "의정부 Uijeongbu",
        "alternate_names": [
          "uijeongbu",
          "의정부",
          "euijeongbu",
          "uijeongbu uijeongbu",
          "의정부 의정부"
        ],
        "line": "SeoulSubway1Hoseon",
        "order": 0
      },
      "id": 1
    },
    {
      "type": "Feature",
      "geometry": {
        "type": "Point",
        "coordinates": [127.060833, 37.948611]
      },
      "properties": {
        "id": 148,
        "name": "소요산 Soyosan",
        "alternate_names": [
          "soyosan",
          "소요산",
          "soyosan soyosan",
          "소요산 소요산"
        ],
        "line": "SeoulSubway1Hoseon",
        "order": 0
      },
      "id": 148
    },
    {
      "type": "Feature",
      "geometry": {
        "type": "Point",
        "coordinates": [126.846667, 37.531667]
      },
      "properties": {
        "id": 382,
        "name": "까치산 Kkachisan",
        "alternate_names": [
          "kkachisan",
          "까치산",
          "kkachisan kkachisan",
          "까치산 까치산"
        ],
        "line": "SeoulSubway2Hoseon",
        "order": 0
      },
      "id": 382
    },
    {
      "type": "Feature",
      "geometry": {
        "type": "Point",
        "coordinates": [127.055961, 37.544581]
      },
      "properties": {
        "id": 387,
        "name": "성수 Seongsu",
        "alternate_names": ["seongsu", "성수", "seongsu seongsu", "성수 성수"],
        "line": "SeoulSubway2Hoseon",
        "order": 0
      },
      "id": 387
    },
    {
      "type": "Feature",
      "geometry": {
        "type": "Point",
        "coordinates": [126.747496, 37.676106]
      },
      "properties": {
        "id": 436,
        "name": "대화 Daehwa",
        "alternate_names": [
          "daehwa",
          "대화",
          "daehoa",
          "daehwa daehwa",
          "대화 대화"
        ],
        "line": "SeoulSubway3Hoseon",
        "order": 0
      },
      "id": 436
    },
    {
      "type": "Feature",
      "geometry": {
        "type": "Point",
        "coordinates": [127.047833, 37.652775]
      },
      "properties": {
        "id": 480,
        "name": "창동 Chang-dong",
        "alternate_names": [
          "changdong",
          "창동",
          "changdong changdong",
          "창동 창동"
        ],
        "line": "SeoulSubway4Hoseon",
        "order": 0
      },
      "id": 480
    },
    {
      "type": "Feature",
      "geometry": {
        "type": "Point",
        "coordinates": [127.203157, 37.72047]
      },
      "properties": {
        "id": 522,
        "name": "진접 Jinjeop",
        "alternate_names": [
          "jinjeop",
          "진접",
          "jinjeob",
          "jinjeop jinjeop",
          "진접 진접"
        ],
        "line": "SeoulSubway4Hoseon",
        "order": 0
      },
      "id": 522
    },
    {
      "type": "Feature",
      "geometry": {
        "type": "Point",
        "coordinates": [126.812741, 37.577446]
      },
      "properties": {
        "id": 627,
        "name": "방화 Banghwa",
        "alternate_names": [
          "banghwa",
          "방화",
          "banghoa",
          "banghwa banghwa",
          "방화 방화"
        ],
        "line": "SeoulSubway5Hoseon",
        "order": 0
      },
      "id": 627
    },
    {
      "type": "Feature",
      "geometry": {
        "type": "Point",
        "coordinates": [126.915577, 37.598605]
      },
      "properties": {
        "id": 722,
        "name": "응암 Eungam",
        "alternate_names": ["eungam", "응암", "eungam eungam", "응암 응암"],
        "line": "SeoulSubway6Hoseon",
        "order": 0
      },
      "id": 722
    },
    {
      "type": "Feature",
      "geometry": {
        "type": "Point",
        "coordinates": [126.823039, 37.492031]
      },
      "properties": {
        "id": 803,
        "name": "온수 Onsu",
        "alternate_names": ["onsu", "온수", "onsu onsu", "온수 온수"],
        "line": "SeoulSubway7Hoseon",
        "order": 0
      },
      "id": 803
    },
    {
      "type": "Feature",
      "geometry": {
        "type": "Point",
        "coordinates": [127.053196, 37.700109]
      },
      "properties": {
        "id": 815,
        "name": "장암 Jangam",
        "alternate_names": ["jangam", "장암", "jangam jangam", "장암 장암"],
        "line": "SeoulSubway7Hoseon",
        "order": 0
      },
      "id": 815
    },
    {
      "type": "Feature",
      "geometry": {
        "type": "Point",
        "coordinates": [127.127574, 37.550232]
      },
      "properties": {
        "id": 868,
        "name": "암사 Amsa",
        "alternate_names": ["amsa", "암사", "amsa amsa", "암사 암사"],
        "line": "SeoulSubway8Hoseon",
        "order": 0
      },
      "id": 868
    },
    {
      "type": "Feature",
      "geometry": {
        "type": "Point",
        "coordinates": [127.148739, 37.529191]
      },
      "properties": {
        "id": 886,
        "name": "중앙보훈병원 VHS Medical Center",
        "alternate_names": [
          "vhs medical center",
          "중앙보훈병원",
          "jungangbohunbyeongueon",
          "jungangbohunbyeongwon",
          "vhs medical center vhs medical center",
          "중앙보훈병원 중앙보훈병원"
        ],
        "line": "SeoulSubway9Hoseon",
        "order": 0
      },
      "id": 886
    },
    {
      "type": "Feature",
      "geometry": {
        "type": "Point",
        "coordinates": [127.111137, 37.394762]
      },
      "properties": {
        "id": 924,
        "name": "판교(판교테크노밸리) Pangyo(Techno Valley)",
        "alternate_names": [
          "pangyo",
          "판교",
          "판교테크노밸리",
          "techno valley",
          "pangyo techno valley",
          "판교 판교테크노밸리"
        ],
        "line": "SeoulMTRGyeonggangseon",
        "order": 0
      },
      "id": 924
    },
    {
      "type": "Feature",
      "geometry": {
        "type": "Point",
        "coordinates": [126.788047, 37.854619]
      },
      "properties": {
        "id": 935,
        "name": "문산 Munsan",
        "alternate_names": ["munsan", "문산", "munsan munsan", "문산 문산"],
        "line": "SeoulMTRGyeongyijungangseon",
        "order": 0
      },
      "id": 935
    },
    {
      "type": "Feature",
      "geometry": {
        "type": "Point",
        "coordinates": [127.04823, 37.58059]
      },
      "properties": {
        "id": 1051,
        "name": "청량리 Cheongnyangni",
        "alternate_names": [
          "cheongnyangni",
          "청량리",
          "cheonglyangli",
          "cheongryangri",
          "cheongnyangni cheongnyangni",
          "청량리 청량리"
        ],
        "line": "SeoulMTRGyeongcunseon",
        "order": 0
      },
      "id": 1051
    },
    {
      "type": "Feature",
      "geometry": {
        "type": "Point",
        "coordinates": [127.061389, 37.623056]
      },
      "properties": {
        "id": 1075,
        "name": "광운대 Kwangwoon University",
        "alternate_names": [
          "kwangwoon univ",
          "광운대",
          "goangundae",
          "gwangundae",
          "kwangwoon univ kwangwoon univ",
          "광운대 광운대"
        ],
        "line": "SeoulMTRGyeongcunseon",
        "order": 0
      },
      "id": 1075
    },
    {
      "type": "Feature",
      "geometry": {
        "type": "Point",
        "coordinates": [126.972135, 37.556228]
      },
      "properties": {
        "id": 1118,
        "name": "서울역 Seoul Station",
        "alternate_names": [
          "seoul station",
          "서울역",
          "seoulyeog",
          "seouryeok",
          "seoul station seoul station",
          "서울역 서울역"
        ],
        "line": "SeoulAirportRailroadGonghangceoldo",
        "order": 0
      },
      "id": 1118
    },
    {
      "type": "Feature",
      "geometry": {
        "type": "Point",
        "coordinates": [127.038632, 37.56131]
      },
      "properties": {
        "id": 1132,
        "name": "왕십리 Wangsimni",
        "alternate_names": [
          "wangsimni",
          "왕십리",
          "oangsibli",
          "wangsimni wangsimni",
          "왕십리 왕십리"
        ],
        "line": "SeoulMTRSuinbundangseon",
        "order": 0
      },
      "id": 1132
    },
    {
      "type": "Feature",
      "geometry": {
        "type": "Point",
        "coordinates": [127.04823, 37.58059]
      },
      "properties": {
        "id": 1156,
        "name": "청량리 Cheongnyangni",
        "alternate_names": [
          "cheongnyangni",
          "청량리",
          "cheonglyangli",
          "cheongryangri",
          "cheongnyangni cheongnyangni",
          "청량리 청량리"
        ],
        "line": "SeoulMTRSuinbundangseon",
        "order": 0
      },
      "id": 1156
    },
    {
      "type": "Feature",
      "geometry": {
        "type": "Point",
        "coordinates": [127.020114, 37.516334]
      },
      "properties": {
        "id": 1219,
        "name": "신사 Sinsa",
        "alternate_names": ["sinsa", "신사", "sinsa sinsa", "신사 신사"],
        "line": "SeoulMTRSinbundangseon",
        "order": 0
      },
      "id": 1219
    },
    {
      "type": "Feature",
      "geometry": {
        "type": "Point",
        "coordinates": [126.73578, 37.571449]
      },
      "properties": {
        "id": 1235,
        "name": "계양 Gyeyang",
        "alternate_names": ["gyeyang", "계양", "gyeyang gyeyang", "계양 계양"],
        "line": "SeoulIncheonMetroInceon1Hoseon",
        "order": 0
      },
      "id": 1235
    },
    {
      "type": "Feature",
      "geometry": {
        "type": "Point",
        "coordinates": [126.627839, 37.594988]
      },
      "properties": {
        "id": 1265,
        "name": "검단오류 Geomdan Oryu",
        "alternate_names": [
          "geomdan oryu",
          "검단오류",
          "geomdanolyu",
          "geomdanoryu",
          "geomdan oryu geomdan oryu",
          "검단오류 검단오류"
        ],
        "line": "CM_SeoulIncheonMetro2_inceon2hoseon",
        "order": 0
      },
      "id": 1265
    },
    {
      "type": "Feature",
      "geometry": {
        "type": "Point",
        "coordinates": [126.801292, 37.562384]
      },
      "properties": {
        "id": 1292,
        "name": "김포공항 Gimpo Intl. Airport",
        "alternate_names": [
          "gimpo intl airport",
          "김포공항",
          "gimpogonghang",
          "gimpo intl airport gimpo intl airport",
          "김포공항 김포공항"
        ],
        "line": "CM_SeoulLightRailTransit_gimpogoldeurain",
        "order": 0
      },
      "id": 1292
    },
    {
      "type": "Feature",
      "geometry": {
        "type": "Point",
        "coordinates": [126.79545, 37.482731]
      },
      "properties": {
        "id": 1311,
        "name": "소사 Sosa",
        "alternate_names": ["sosa", "소사", "sosa sosa", "소사 소사"],
        "line": "SeoulLightRailTransitSeohaeseon",
        "order": 0
      },
      "id": 1311
    },
    {
      "type": "Feature",
      "geometry": {
        "type": "Point",
        "coordinates": [126.929399, 37.517097]
      },
      "properties": {
        "id": 1323,
        "name": "샛강 Saetgang",
        "alternate_names": [
          "saetgang",
          "샛강",
          "saesgang",
          "saetgang saetgang",
          "샛강 샛강"
        ],
        "line": "SeoulLightRailTransitSinrimseon",
        "order": 0
      },
      "id": 1323
    },
    {
      "type": "Feature",
      "geometry": {
        "type": "Point",
        "coordinates": [127.219571, 37.285352]
      },
      "properties": {
        "id": 1334,
        "name": "전대·에버랜드 Jeondae·Everland",
        "alternate_names": [
          "jeondae·everland",
          "전대·에버랜드",
          "jeondae·ebeolaendeu",
          "jeondae·ebeoraendeu",
          "jeondae·everland jeondae·everland",
          "전대·에버랜드 전대·에버랜드"
        ],
        "line": "SeoulLightRailTransitEverline",
        "order": 0
      },
      "id": 1334
    },
    {
      "type": "Feature",
      "geometry": {
        "type": "Point",
        "coordinates": [127.024634, 37.576048]
      },
      "properties": {
        "id": 1349,
        "name": "신설동 Sinseol-dong",
        "alternate_names": [
          "sinseoldong",
          "신설동",
          "sinseoldong sinseoldong",
          "신설동 신설동"
        ],
        "line": "SeoulLightRailTransitUisinseolgyeongjeonceol",
        "order": 0
      },
      "id": 1349
    },
    {
      "type": "Feature",
      "geometry": {
        "type": "Point",
        "coordinates": [127.052943, 37.72702]
      },
      "properties": {
        "id": 1362,
        "name": "발곡 Balgok",
        "alternate_names": [
          "balgok",
          "발곡",
          "balgog",
          "balgok balgok",
          "발곡 발곡"
        ],
        "line": "SeoulLightRailTransitUijeongbu",
        "order": 0
      },
      "id": 1362
    },
    {
      "type": "Feature",
      "geometry": {
        "type": "Point",
        "coordinates": [127.128328, 37.502124]
      },
      "properties": {
        "id": 479,
        "name": "오금 Ogeum",
        "alternate_names": ["ogeum", "오금", "ogeum ogeum", "오금 오금"],
        "line": "SeoulSubway3Hoseon",
        "order": 782
      },
      "id": 479
    },
    {
      "type": "Feature",
      "geometry": {
        "type": "Point",
        "coordinates": [127.124469, 37.495951]
      },
      "properties": {
        "id": 478,
        "name": "경찰병원 National Police Hospital",
        "alternate_names": [
          "natl police hospital",
          "경찰병원",
          "gyeongchalbyeongueon",
          "gyeongchalbyeongwon",
          "natl police hospital natl police hospital",
          "경찰병원 경찰병원"
        ],
        "line": "SeoulSubway3Hoseon",
        "order": 765
      },
      "id": 478
    },
    {
      "type": "Feature",
      "geometry": {
        "type": "Point",
        "coordinates": [127.117758, 37.492243]
      },
      "properties": {
        "id": 477,
        "name": "가락시장 Garak Market",
        "alternate_names": [
          "garak market",
          "가락시장",
          "galagsijang",
          "garaksijang",
          "garak market garak market",
          "가락시장 가락시장"
        ],
        "line": "SeoulSubway3Hoseon",
        "order": 746
      },
      "id": 477
    },
    {
      "type": "Feature",
      "geometry": {
        "type": "Point",
        "coordinates": [127.101903, 37.487386]
      },
      "properties": {
        "id": 476,
        "name": "수서 Suseo",
        "alternate_names": ["suseo", "수서", "suseo suseo", "수서 수서"],
        "line": "SeoulSubway3Hoseon",
        "order": 731
      },
      "id": 476
    },
    {
      "type": "Feature",
      "geometry": {
        "type": "Point",
        "coordinates": [127.084392, 37.483683]
      },
      "properties": {
        "id": 475,
        "name": "일원 Irwon",
        "alternate_names": [
          "irwon",
          "일원",
          "ilueon",
          "irwon irwon",
          "일원 일원"
        ],
        "line": "SeoulSubway3Hoseon",
        "order": 702
      },
      "id": 475
    },
    {
      "type": "Feature",
      "geometry": {
        "type": "Point",
        "coordinates": [127.079576, 37.493527]
      },
      "properties": {
        "id": 474,
        "name": "대청 Daecheong",
        "alternate_names": [
          "daecheong",
          "대청",
          "daecheong daecheong",
          "대청 대청"
        ],
        "line": "SeoulSubway3Hoseon",
        "order": 686
      },
      "id": 474
    },
    {
      "type": "Feature",
      "geometry": {
        "type": "Point",
        "coordinates": [127.070583, 37.496687]
      },
      "properties": {
        "id": 473,
        "name": "학여울 Hangnyeoul",
        "alternate_names": [
          "hangnyeoul",
          "학여울",
          "hagyeoul",
          "hangnyeoul hangnyeoul",
          "학여울 학여울"
        ],
        "line": "SeoulSubway3Hoseon",
        "order": 671
      },
      "id": 473
    },
    {
      "type": "Feature",
      "geometry": {
        "type": "Point",
        "coordinates": [127.063617, 37.494605]
      },
      "properties": {
        "id": 472,
        "name": "대치 Daechi",
        "alternate_names": ["daechi", "대치", "daechi daechi", "대치 대치"],
        "line": "SeoulSubway3Hoseon",
        "order": 663
      },
      "id": 472
    },
    {
      "type": "Feature",
      "geometry": {
        "type": "Point",
        "coordinates": [127.055461, 37.49091]
      },
      "properties": {
        "id": 471,
        "name": "도곡 Dogok",
        "alternate_names": [
          "dogok",
          "도곡",
          "dogog",
          "dogok dogok",
          "도곡 도곡"
        ],
        "line": "SeoulSubway3Hoseon",
        "order": 650
      },
      "id": 471
    },
    {
      "type": "Feature",
      "geometry": {
        "type": "Point",
        "coordinates": [127.04677, 37.486946]
      },
      "properties": {
        "id": 470,
        "name": "매봉 Maebong",
        "alternate_names": ["maebong", "매봉", "maebong maebong", "매봉 매봉"],
        "line": "SeoulSubway3Hoseon",
        "order": 641
      },
      "id": 470
    },
    {
      "type": "Feature",
      "geometry": {
        "type": "Point",
        "coordinates": [127.033903, 37.484472]
      },
      "properties": {
        "id": 469,
        "name": "양재(서초구청) Yangjae",
        "alternate_names": ["yangjae", "양재", "서초구청", "양재 서초구청"],
        "line": "SeoulSubway3Hoseon",
        "order": 628
      },
      "id": 469
    },
    {
      "type": "Feature",
      "geometry": {
        "type": "Point",
        "coordinates": [127.016251, 37.485037]
      },
      "properties": {
        "id": 468,
        "name": "남부터미널(예술의전당) Nambu Bus Terminal",
        "alternate_names": [
          "nambu bus terminal",
          "남부터미널",
          "nambuteomineol",
          "예술의전당",
          "남부터미널 예술의전당"
        ],
        "line": "SeoulSubway3Hoseon",
        "order": 604
      },
      "id": 468
    },
    {
      "type": "Feature",
      "geometry": {
        "type": "Point",
        "coordinates": [127.013829, 37.492881]
      },
      "properties": {
        "id": 467,
        "name": "교대(법원·검찰청) Seoul National University of Education",
        "alternate_names": [
          "seoul natl univ of education",
          "교대",
          "gyodae",
          "법원·검찰청",
          "교대 법원·검찰청"
        ],
        "line": "SeoulSubway3Hoseon",
        "order": 591
      },
      "id": 467
    },
    {
      "type": "Feature",
      "geometry": {
        "type": "Point",
        "coordinates": [127.00493, 37.504909]
      },
      "properties": {
        "id": 466,
        "name": "고속터미널 Express Bus Terminal",
        "alternate_names": [
          "express bus terminal",
          "고속터미널",
          "gosogteomineol",
          "gosokteomineol",
          "express bus terminal express bus terminal",
          "고속터미널 고속터미널"
        ],
        "line": "SeoulSubway3Hoseon",
        "order": 563
      },
      "id": 466
    },
    {
      "type": "Feature",
      "geometry": {
        "type": "Point",
        "coordinates": [127.01122, 37.512759]
      },
      "properties": {
        "id": 465,
        "name": "잠원 Jamwon",
        "alternate_names": [
          "jamwon",
          "잠원",
          "jamueon",
          "jamwon jamwon",
          "잠원 잠원"
        ],
        "line": "SeoulSubway3Hoseon",
        "order": 541
      },
      "id": 465
    },
    {
      "type": "Feature",
      "geometry": {
        "type": "Point",
        "coordinates": [127.020116, 37.516331]
      },
      "properties": {
        "id": 464,
        "name": "신사 Sinsa",
        "alternate_names": ["sinsa", "신사", "sinsa sinsa", "신사 신사"],
        "line": "SeoulSubway3Hoseon",
        "order": 526
      },
      "id": 464
    },
    {
      "type": "Feature",
      "geometry": {
        "type": "Point",
        "coordinates": [127.028456, 37.52707]
      },
      "properties": {
        "id": 463,
        "name": "압구정 Apgujeong",
        "alternate_names": [
          "apgujeong",
          "압구정",
          "abgujeong",
          "apgujeong apgujeong",
          "압구정 압구정"
        ],
        "line": "SeoulSubway3Hoseon",
        "order": 500
      },
      "id": 463
    },
    {
      "type": "Feature",
      "geometry": {
        "type": "Point",
        "coordinates": [127.017287, 37.54169]
      },
      "properties": {
        "id": 462,
        "name": "옥수 Oksu",
        "alternate_names": ["oksu", "옥수", "ogsu", "oksu oksu", "옥수 옥수"],
        "line": "SeoulSubway3Hoseon",
        "order": 479
      },
      "id": 462
    },
    {
      "type": "Feature",
      "geometry": {
        "type": "Point",
        "coordinates": [127.015851, 37.548028]
      },
      "properties": {
        "id": 461,
        "name": "금호 Geumho",
        "alternate_names": ["geumho", "금호", "geumho geumho", "금호 금호"],
        "line": "SeoulSubway3Hoseon",
        "order": 467
      },
      "id": 461
    },
    {
      "type": "Feature",
      "geometry": {
        "type": "Point",
        "coordinates": [127.010545, 37.554869]
      },
      "properties": {
        "id": 460,
        "name": "약수 Yaksu",
        "alternate_names": [
          "yaksu",
          "약수",
          "yagsu",
          "yaksu yaksu",
          "약수 약수"
        ],
        "line": "SeoulSubway3Hoseon",
        "order": 455
      },
      "id": 460
    },
    {
      "type": "Feature",
      "geometry": {
        "type": "Point",
        "coordinates": [127.005596, 37.559059]
      },
      "properties": {
        "id": 459,
        "name": "동대입구 Dongguk Univ.",
        "alternate_names": [
          "dongguk univ",
          "동대입구",
          "dongdaeibgu",
          "dongdaeipgu",
          "dongguk univ dongguk univ",
          "동대입구 동대입구"
        ],
        "line": "SeoulSubway3Hoseon",
        "order": 442
      },
      "id": 459
    },
    {
      "type": "Feature",
      "geometry": {
        "type": "Point",
        "coordinates": [126.994079, 37.561437]
      },
      "properties": {
        "id": 458,
        "name": "충무로 Chungmuro",
        "alternate_names": [
          "chungmuro",
          "충무로",
          "chungmulo",
          "chungmuro chungmuro",
          "충무로 충무로"
        ],
        "line": "SeoulSubway3Hoseon",
        "order": 430
      },
      "id": 458
    },
    {
      "type": "Feature",
      "geometry": {
        "type": "Point",
        "coordinates": [126.992599, 37.566373]
      },
      "properties": {
        "id": 457,
        "name": "을지로3가 Euljiro 3(sam)-ga",
        "alternate_names": [
          "euljiro 3ga",
          "을지로3가",
          "euljilo3ga",
          "euljiro3ga",
          "sam",
          "을지로3가 sam"
        ],
        "line": "SeoulSubway3Hoseon",
        "order": 421
      },
      "id": 457
    },
    {
      "type": "Feature",
      "geometry": {
        "type": "Point",
        "coordinates": [126.992113, 37.570426]
      },
      "properties": {
        "id": 456,
        "name": "종로3가 Jongno 3(sam)-ga",
        "alternate_names": [
          "jongno 3ga",
          "종로3가",
          "jonglo3ga",
          "jongro3ga",
          "sam",
          "종로3가 sam"
        ],
        "line": "SeoulSubway3Hoseon",
        "order": 417
      },
      "id": 456
    },
    {
      "type": "Feature",
      "geometry": {
        "type": "Point",
        "coordinates": [126.985431, 37.576495]
      },
      "properties": {
        "id": 455,
        "name": "안국 Anguk",
        "alternate_names": [
          "anguk",
          "안국",
          "angug",
          "anguk anguk",
          "안국 안국"
        ],
        "line": "SeoulSubway3Hoseon",
        "order": 402
      },
      "id": 455
    },
    {
      "type": "Feature",
      "geometry": {
        "type": "Point",
        "coordinates": [126.973536, 37.5758]
      },
      "properties": {
        "id": 454,
        "name": "경복궁(정부서울청사) Gyeongbokgung Palace",
        "alternate_names": [
          "gyeongbokgung palace",
          "경복궁",
          "gyeongboggung",
          "gyeongbokgung",
          "정부서울청사",
          "경복궁 정부서울청사"
        ],
        "line": "SeoulSubway3Hoseon",
        "order": 386
      },
      "id": 454
    },
    {
      "type": "Feature",
      "geometry": {
        "type": "Point",
        "coordinates": [126.957752, 37.574574]
      },
      "properties": {
        "id": 453,
        "name": "독립문 Dongnimmun",
        "alternate_names": [
          "dongnimmun",
          "독립문",
          "doglibmun",
          "dongnimmun dongnimmun",
          "독립문 독립문"
        ],
        "line": "SeoulSubway3Hoseon",
        "order": 354
      },
      "id": 453
    },
    {
      "type": "Feature",
      "geometry": {
        "type": "Point",
        "coordinates": [126.950321, 37.582308]
      },
      "properties": {
        "id": 452,
        "name": "무악재 Muakjae",
        "alternate_names": [
          "muakjae",
          "무악재",
          "muagjae",
          "muakjae muakjae",
          "무악재 무악재"
        ],
        "line": "SeoulSubway3Hoseon",
        "order": 334
      },
      "id": 452
    },
    {
      "type": "Feature",
      "geometry": {
        "type": "Point",
        "coordinates": [126.943738, 37.589068]
      },
      "properties": {
        "id": 451,
        "name": "홍제 Hongje",
        "alternate_names": ["hongje", "홍제", "hongje hongje", "홍제 홍제"],
        "line": "SeoulSubway3Hoseon",
        "order": 320
      },
      "id": 451
    },
    {
      "type": "Feature",
      "geometry": {
        "type": "Point",
        "coordinates": [126.935744, 37.600923]
      },
      "properties": {
        "id": 450,
        "name": "녹번 Nokbeon",
        "alternate_names": [
          "nokbeon",
          "녹번",
          "nogbeon",
          "nokbeon nokbeon",
          "녹번 녹번"
        ],
        "line": "SeoulSubway3Hoseon",
        "order": 297
      },
      "id": 450
    },
    {
      "type": "Feature",
      "geometry": {
        "type": "Point",
        "coordinates": [126.929822, 37.610554]
      },
      "properties": {
        "id": 449,
        "name": "불광 Bulgwang",
        "alternate_names": [
          "bulgwang",
          "불광",
          "bulgoang",
          "bulgwang bulgwang",
          "불광 불광"
        ],
        "line": "SeoulSubway3Hoseon",
        "order": 283
      },
      "id": 449
    },
    {
      "type": "Feature",
      "geometry": {
        "type": "Point",
        "coordinates": [126.921041, 37.619231]
      },
      "properties": {
        "id": 448,
        "name": "연신내 Yeonsinnae",
        "alternate_names": [
          "yeonsinnae",
          "연신내",
          "yeonsinnae yeonsinnae",
          "연신내 연신내"
        ],
        "line": "SeoulSubway3Hoseon",
        "order": 271
      },
      "id": 448
    },
    {
      "type": "Feature",
      "geometry": {
        "type": "Point",
        "coordinates": [126.918827, 37.636763]
      },
      "properties": {
        "id": 447,
        "name": "구파발 Gupabal",
        "alternate_names": [
          "gupabal",
          "구파발",
          "gupabal gupabal",
          "구파발 구파발"
        ],
        "line": "SeoulSubway3Hoseon",
        "order": 247
      },
      "id": 447
    },
    {
      "type": "Feature",
      "geometry": {
        "type": "Point",
        "coordinates": [126.913922, 37.648058]
      },
      "properties": {
        "id": 446,
        "name": "지축 Jichuk",
        "alternate_names": [
          "jichuk",
          "지축",
          "jichug",
          "jichuk jichuk",
          "지축 지축"
        ],
        "line": "SeoulSubway3Hoseon",
        "order": 220
      },
      "id": 446
    },
    {
      "type": "Feature",
      "geometry": {
        "type": "Point",
        "coordinates": [127.129832, 37.433839]
      },
      "properties": {
        "id": 885,
        "name": "모란 Moran",
        "alternate_names": [
          "moran",
          "모란",
          "molan",
          "moran moran",
          "모란 모란"
        ],
        "line": "SeoulSubway8Hoseon",
        "order": 217
      },
      "id": 885
    },
    {
      "type": "Feature",
      "geometry": {
        "type": "Point",
        "coordinates": [126.895492, 37.653095]
      },
      "properties": {
        "id": 445,
        "name": "삼송 Samsong",
        "alternate_names": ["samsong", "삼송", "samsong samsong", "삼송 삼송"],
        "line": "SeoulSubway3Hoseon",
        "order": 206
      },
      "id": 445
    },
    {
      "type": "Feature",
      "geometry": {
        "type": "Point",
        "coordinates": [126.884849, 37.416569]
      },
      "properties": {
        "id": 216,
        "name": "광명 Gwangmyeong",
        "alternate_names": [
          "gwangmyeong",
          "광명",
          "goangmyeong",
          "gwangmyeong gwangmyeong",
          "광명 광명"
        ],
        "line": "SeoulSubway1Hoseon",
        "order": 205
      },
      "id": 216
    },
    {
      "type": "Feature",
      "geometry": {
        "type": "Point",
        "coordinates": [127.140722, 37.437428]
      },
      "properties": {
        "id": 884,
        "name": "수진 Sujin",
        "alternate_names": ["sujin", "수진", "sujin sujin", "수진 수진"],
        "line": "SeoulSubway8Hoseon",
        "order": 198
      },
      "id": 884
    },
    {
      "type": "Feature",
      "geometry": {
        "type": "Point",
        "coordinates": [127.147562, 37.440921]
      },
      "properties": {
        "id": 883,
        "name": "신흥 Sinheung",
        "alternate_names": [
          "sinheung",
          "신흥",
          "sinheung sinheung",
          "신흥 신흥"
        ],
        "line": "SeoulSubway8Hoseon",
        "order": 189
      },
      "id": 883
    },
    {
      "type": "Feature",
      "geometry": {
        "type": "Point",
        "coordinates": [126.872644, 37.650663]
      },
      "properties": {
        "id": 444,
        "name": "원흥 Wonheung",
        "alternate_names": [
          "wonheung",
          "원흥",
          "ueonheung",
          "wonheung wonheung",
          "원흥 원흥"
        ],
        "line": "SeoulSubway3Hoseon",
        "order": 181
      },
      "id": 444
    },
    {
      "type": "Feature",
      "geometry": {
        "type": "Point",
        "coordinates": [127.156894, 37.445195]
      },
      "properties": {
        "id": 882,
        "name": "단대오거리 Dandaeogeori",
        "alternate_names": [
          "dandaeogeori",
          "단대오거리",
          "dandaeogeoli",
          "dandaeogeori dandaeogeori",
          "단대오거리 단대오거리"
        ],
        "line": "SeoulSubway8Hoseon",
        "order": 174
      },
      "id": 882
    },
    {
      "type": "Feature",
      "geometry": {
        "type": "Point",
        "coordinates": [127.115936, 37.275504]
      },
      "properties": {
        "id": 1348,
        "name": "기흥 Giheung",
        "alternate_names": ["giheung", "기흥", "giheung giheung", "기흥 기흥"],
        "line": "SeoulLightRailTransitEverline",
        "order": 167
      },
      "id": 1348
    },
    {
      "type": "Feature",
      "geometry": {
        "type": "Point",
        "coordinates": [127.159872, 37.451626]
      },
      "properties": {
        "id": 881,
        "name": "남한산성입구(성남법원·검찰청) Namhansanseong",
        "alternate_names": [
          "namhansanseong",
          "남한산성입구",
          "namhansanseongibgu",
          "namhansanseongipgu",
          "성남법원·검찰청",
          "남한산성입구 성남법원·검찰청"
        ],
        "line": "SeoulSubway8Hoseon",
        "order": 166
      },
      "id": 881
    },
    {
      "type": "Feature",
      "geometry": {
        "type": "Point",
        "coordinates": [127.126083, 37.270209]
      },
      "properties": {
        "id": 1347,
        "name": "강남대 Kangnam Univ.",
        "alternate_names": [
          "kangnam univ",
          "강남대",
          "gangnamdae",
          "kangnam univ kangnam univ",
          "강남대 강남대"
        ],
        "line": "SeoulLightRailTransitEverline",
        "order": 158
      },
      "id": 1347
    },
    {
      "type": "Feature",
      "geometry": {
        "type": "Point",
        "coordinates": [126.843037, 37.653326]
      },
      "properties": {
        "id": 443,
        "name": "원당 Wondang",
        "alternate_names": [
          "wondang",
          "원당",
          "ueondang",
          "wondang wondang",
          "원당 원당"
        ],
        "line": "SeoulSubway3Hoseon",
        "order": 150
      },
      "id": 443
    },
    {
      "type": "Feature",
      "geometry": {
        "type": "Point",
        "coordinates": [127.149665, 37.456925]
      },
      "properties": {
        "id": 880,
        "name": "산성 Sanseong",
        "alternate_names": [
          "sanseong",
          "산성",
          "sanseong sanseong",
          "산성 산성"
        ],
        "line": "SeoulSubway8Hoseon",
        "order": 147
      },
      "id": 880
    },
    {
      "type": "Feature",
      "geometry": {
        "type": "Point",
        "coordinates": [127.136511, 37.26961]
      },
      "properties": {
        "id": 1346,
        "name": "지석 Jiseok",
        "alternate_names": [
          "jiseok",
          "지석",
          "jiseog",
          "jiseok jiseok",
          "지석 지석"
        ],
        "line": "SeoulLightRailTransitEverline",
        "order": 147
      },
      "id": 1346
    },
    {
      "type": "Feature",
      "geometry": {
        "type": "Point",
        "coordinates": [127.143686, 37.274979]
      },
      "properties": {
        "id": 1345,
        "name": "어정 Eojeong",
        "alternate_names": ["eojeong", "어정", "eojeong eojeong", "어정 어정"],
        "line": "SeoulLightRailTransitEverline",
        "order": 139
      },
      "id": 1345
    },
    {
      "type": "Feature",
      "geometry": {
        "type": "Point",
        "coordinates": [127.139798, 37.462432]
      },
      "properties": {
        "id": 879,
        "name": "남위례 Namwirye",
        "alternate_names": [
          "namwirye",
          "남위례",
          "namuilye",
          "namwirye namwirye",
          "남위례 남위례"
        ],
        "line": "SeoulSubway8Hoseon",
        "order": 134
      },
      "id": 879
    },
    {
      "type": "Feature",
      "geometry": {
        "type": "Point",
        "coordinates": [127.152811, 37.269063]
      },
      "properties": {
        "id": 1344,
        "name": "동백 Dongbaek",
        "alternate_names": [
          "dongbaek",
          "동백",
          "dongbaeg",
          "dongbaek dongbaek",
          "동백 동백"
        ],
        "line": "SeoulLightRailTransitEverline",
        "order": 128
      },
      "id": 1344
    },
    {
      "type": "Feature",
      "geometry": {
        "type": "Point",
        "coordinates": [126.832573, 37.634608]
      },
      "properties": {
        "id": 442,
        "name": "화정 Hwajeong",
        "alternate_names": [
          "hwajeong",
          "화정",
          "hoajeong",
          "hwajeong hwajeong",
          "화정 화정"
        ],
        "line": "SeoulSubway3Hoseon",
        "order": 123
      },
      "id": 442
    },
    {
      "type": "Feature",
      "geometry": {
        "type": "Point",
        "coordinates": [127.159531, 37.260813]
      },
      "properties": {
        "id": 1343,
        "name": "초당 Chodang",
        "alternate_names": ["chodang", "초당", "chodang chodang", "초당 초당"],
        "line": "SeoulLightRailTransitEverline",
        "order": 121
      },
      "id": 1343
    },
    {
      "type": "Feature",
      "geometry": {
        "type": "Point",
        "coordinates": [127.126755, 37.47108]
      },
      "properties": {
        "id": 878,
        "name": "복정 Bokjeong",
        "alternate_names": [
          "bokjeong",
          "복정",
          "bogjeong",
          "bokjeong bokjeong",
          "복정 복정"
        ],
        "line": "SeoulSubway8Hoseon",
        "order": 111
      },
      "id": 878
    },
    {
      "type": "Feature",
      "geometry": {
        "type": "Point",
        "coordinates": [127.126186, 37.478701]
      },
      "properties": {
        "id": 877,
        "name": "장지 Jangji",
        "alternate_names": ["jangji", "장지", "jangji jangji", "장지 장지"],
        "line": "SeoulSubway8Hoseon",
        "order": 100
      },
      "id": 877
    },
    {
      "type": "Feature",
      "geometry": {
        "type": "Point",
        "coordinates": [127.168127, 37.24215]
      },
      "properties": {
        "id": 1342,
        "name": "삼가 Samga",
        "alternate_names": ["samga", "삼가", "samga samga", "삼가 삼가"],
        "line": "SeoulLightRailTransitEverline",
        "order": 100
      },
      "id": 1342
    },
    {
      "type": "Feature",
      "geometry": {
        "type": "Point",
        "coordinates": [127.178385, 37.239366]
      },
      "properties": {
        "id": 1341,
        "name": "시청·용인대 City Hall·Yongin Univ.",
        "alternate_names": [
          "city hall·yongin univ",
          "시청·용인대",
          "sicheong·yongindae",
          "city hall·yongin univ city hall·yongin univ",
          "시청·용인대 시청·용인대"
        ],
        "line": "SeoulLightRailTransitEverline",
        "order": 95
      },
      "id": 1341
    },
    {
      "type": "Feature",
      "geometry": {
        "type": "Point",
        "coordinates": [127.122508, 37.485858]
      },
      "properties": {
        "id": 876,
        "name": "문정 Munjeong",
        "alternate_names": [
          "munjeong",
          "문정",
          "munjeong munjeong",
          "문정 문정"
        ],
        "line": "SeoulSubway8Hoseon",
        "order": 92
      },
      "id": 876
    },
    {
      "type": "Feature",
      "geometry": {
        "type": "Point",
        "coordinates": [126.810699, 37.631669]
      },
      "properties": {
        "id": 441,
        "name": "대곡 Daegok",
        "alternate_names": [
          "daegok",
          "대곡",
          "daegog",
          "daegok daegok",
          "대곡 대곡"
        ],
        "line": "SeoulSubway3Hoseon",
        "order": 86
      },
      "id": 441
    },
    {
      "type": "Feature",
      "geometry": {
        "type": "Point",
        "coordinates": [127.190362, 37.238096]
      },
      "properties": {
        "id": 1340,
        "name": "명지대 Myongji Univ.",
        "alternate_names": [
          "myongji univ",
          "명지대",
          "myeongjidae",
          "myongji univ myongji univ",
          "명지대 명지대"
        ],
        "line": "SeoulLightRailTransitEverline",
        "order": 85
      },
      "id": 1340
    },
    {
      "type": "Feature",
      "geometry": {
        "type": "Point",
        "coordinates": [127.11839, 37.492883]
      },
      "properties": {
        "id": 875,
        "name": "가락시장 Garak Market",
        "alternate_names": [
          "garak market",
          "가락시장",
          "galagsijang",
          "garaksijang",
          "garak market garak market",
          "가락시장 가락시장"
        ],
        "line": "SeoulSubway8Hoseon",
        "order": 81
      },
      "id": 875
    },
    {
      "type": "Feature",
      "geometry": {
        "type": "Point",
        "coordinates": [127.088755, 37.733592]
      },
      "properties": {
        "id": 1376,
        "name": "탑석 Tapseok",
        "alternate_names": [
          "tapseok",
          "탑석",
          "tabseog",
          "tapseok tapseok",
          "탑석 탑석"
        ],
        "line": "SeoulLightRailTransitUijeongbu",
        "order": 80
      },
      "id": 1376
    },
    {
      "type": "Feature",
      "geometry": {
        "type": "Point",
        "coordinates": [127.087191, 37.737287]
      },
      "properties": {
        "id": 1375,
        "name": "송산 Songsan",
        "alternate_names": ["songsan", "송산", "songsan songsan", "송산 송산"],
        "line": "SeoulLightRailTransitUijeongbu",
        "order": 78
      },
      "id": 1375
    },
    {
      "type": "Feature",
      "geometry": {
        "type": "Point",
        "coordinates": [127.198796, 37.237342]
      },
      "properties": {
        "id": 1339,
        "name": "김량장 Gimnyangjang",
        "alternate_names": [
          "gimnyangjang",
          "김량장",
          "gimlyangjang",
          "gimnyangjang gimnyangjang",
          "김량장 김량장"
        ],
        "line": "SeoulLightRailTransitEverline",
        "order": 77
      },
      "id": 1339
    },
    {
      "type": "Feature",
      "geometry": {
        "type": "Point",
        "coordinates": [127.085151, 37.742829]
      },
      "properties": {
        "id": 1374,
        "name": "어룡 Eoryong",
        "alternate_names": [
          "eoryong",
          "어룡",
          "eolyong",
          "eoryong eoryong",
          "어룡 어룡"
        ],
        "line": "SeoulLightRailTransitUijeongbu",
        "order": 75
      },
      "id": 1374
    },
    {
      "type": "Feature",
      "geometry": {
        "type": "Point",
        "coordinates": [127.112186, 37.499704]
      },
      "properties": {
        "id": 874,
        "name": "송파 Songpa",
        "alternate_names": ["songpa", "송파", "songpa songpa", "송파 송파"],
        "line": "SeoulSubway8Hoseon",
        "order": 71
      },
      "id": 874
    },
    {
      "type": "Feature",
      "geometry": {
        "type": "Point",
        "coordinates": [127.209261, 37.237926]
      },
      "properties": {
        "id": 1338,
        "name": "운동장·송담대 Stadium·Songdam College",
        "alternate_names": [
          "stadium·songdam college",
          "운동장·송담대",
          "undongjang·songdamdae",
          "stadium·songdam college stadium·songdam college",
          "운동장·송담대 운동장·송담대"
        ],
        "line": "SeoulLightRailTransitEverline",
        "order": 67
      },
      "id": 1338
    },
    {
      "type": "Feature",
      "geometry": {
        "type": "Point",
        "coordinates": [127.083808, 37.750501]
      },
      "properties": {
        "id": 1373,
        "name": "곤제 Gonjae",
        "alternate_names": [
          "gonjae",
          "곤제",
          "gonje",
          "gonjae gonjae",
          "곤제 곤제"
        ],
        "line": "SeoulLightRailTransitUijeongbu",
        "order": 67
      },
      "id": 1373
    },
    {
      "type": "Feature",
      "geometry": {
        "type": "Point",
        "coordinates": [127.106847, 37.505566]
      },
      "properties": {
        "id": 873,
        "name": "석촌 Seokchon",
        "alternate_names": [
          "seokchon",
          "석촌",
          "seogchon",
          "seokchon seokchon",
          "석촌 석촌"
        ],
        "line": "SeoulSubway8Hoseon",
        "order": 65
      },
      "id": 873
    },
    {
      "type": "Feature",
      "geometry": {
        "type": "Point",
        "coordinates": [126.616708, 37.475883]
      },
      "properties": {
        "id": 1218,
        "name": "인천 Incheon",
        "alternate_names": ["incheon", "인천", "incheon incheon", "인천 인천"],
        "line": "SeoulMTRSuinbundangseon",
        "order": 62
      },
      "id": 1218
    },
    {
      "type": "Feature",
      "geometry": {
        "type": "Point",
        "coordinates": [126.616708, 37.475883]
      },
      "properties": {
        "id": 209,
        "name": "인천 Incheon",
        "alternate_names": ["incheon", "인천", "incheon incheon", "인천 인천"],
        "line": "SeoulSubway1Hoseon",
        "order": 61
      },
      "id": 209
    },
    {
      "type": "Feature",
      "geometry": {
        "type": "Point",
        "coordinates": [126.623853, 37.46874]
      },
      "properties": {
        "id": 1217,
        "name": "신포 Sinpo",
        "alternate_names": ["sinpo", "신포", "sinpo sinpo", "신포 신포"],
        "line": "SeoulMTRSuinbundangseon",
        "order": 61
      },
      "id": 1217
    },
    {
      "type": "Feature",
      "geometry": {
        "type": "Point",
        "coordinates": [127.077031, 37.753805]
      },
      "properties": {
        "id": 1372,
        "name": "효자 Hyoja",
        "alternate_names": ["hyoja", "효자", "hyoja hyoja", "효자 효자"],
        "line": "SeoulLightRailTransitUijeongbu",
        "order": 61
      },
      "id": 1372
    },
    {
      "type": "Feature",
      "geometry": {
        "type": "Point",
        "coordinates": [126.632864, 37.475153]
      },
      "properties": {
        "id": 208,
        "name": "동인천 Dongincheon",
        "alternate_names": [
          "dongincheon",
          "동인천",
          "dongincheon dongincheon",
          "동인천 동인천"
        ],
        "line": "SeoulSubway1Hoseon",
        "order": 60
      },
      "id": 208
    },
    {
      "type": "Feature",
      "geometry": {
        "type": "Point",
        "coordinates": [126.638306, 37.460806]
      },
      "properties": {
        "id": 1216,
        "name": "숭의(인하대병원) Sungui",
        "alternate_names": [
          "sungui",
          "숭의",
          "sungeui",
          "인하대병원",
          "숭의 인하대병원"
        ],
        "line": "SeoulMTRSuinbundangseon",
        "order": 60
      },
      "id": 1216
    },
    {
      "type": "Feature",
      "geometry": {
        "type": "Point",
        "coordinates": [126.642314, 37.468675]
      },
      "properties": {
        "id": 207,
        "name": "도원 Dowon",
        "alternate_names": [
          "dowon",
          "도원",
          "doueon",
          "dowon dowon",
          "도원 도원"
        ],
        "line": "SeoulSubway1Hoseon",
        "order": 59
      },
      "id": 207
    },
    {
      "type": "Feature",
      "geometry": {
        "type": "Point",
        "coordinates": [126.649619, 37.448493]
      },
      "properties": {
        "id": 1215,
        "name": "인하대 Inha Univ.",
        "alternate_names": [
          "inha univ",
          "인하대",
          "inhadae",
          "inha univ inha univ",
          "인하대 인하대"
        ],
        "line": "SeoulMTRSuinbundangseon",
        "order": 59
      },
      "id": 1215
    },
    {
      "type": "Feature",
      "geometry": {
        "type": "Point",
        "coordinates": [126.6568, 37.466783]
      },
      "properties": {
        "id": 206,
        "name": "제물포 Jemulpo",
        "alternate_names": [
          "jemulpo",
          "제물포",
          "jemulpo jemulpo",
          "제물포 제물포"
        ],
        "line": "SeoulSubway1Hoseon",
        "order": 58
      },
      "id": 206
    },
    {
      "type": "Feature",
      "geometry": {
        "type": "Point",
        "coordinates": [126.657772, 37.428514]
      },
      "properties": {
        "id": 1214,
        "name": "송도 Songdo",
        "alternate_names": ["songdo", "송도", "songdo songdo", "송도 송도"],
        "line": "SeoulMTRSuinbundangseon",
        "order": 58
      },
      "id": 1214
    },
    {
      "type": "Feature",
      "geometry": {
        "type": "Point",
        "coordinates": [126.950811, 36.769628]
      },
      "properties": {
        "id": 147,
        "name": "신창(순천향대) Sinchang(Soonchunhyang University)",
        "alternate_names": [
          "sinchang",
          "신창",
          "순천향대",
          "soonchunhyang univ",
          "sinchang soonchunhyang univ",
          "신창 순천향대"
        ],
        "line": "SeoulSubway1Hoseon",
        "order": 57
      },
      "id": 147
    },
    {
      "type": "Feature",
      "geometry": {
        "type": "Point",
        "coordinates": [126.668264, 37.466117]
      },
      "properties": {
        "id": 205,
        "name": "도화 Dohwa",
        "alternate_names": [
          "dohwa",
          "도화",
          "dohoa",
          "dohwa dohwa",
          "도화 도화"
        ],
        "line": "SeoulSubway1Hoseon",
        "order": 57
      },
      "id": 205
    },
    {
      "type": "Feature",
      "geometry": {
        "type": "Point",
        "coordinates": [126.67894, 37.417804]
      },
      "properties": {
        "id": 1213,
        "name": "연수 Yeonsu",
        "alternate_names": ["yeonsu", "연수", "yeonsu yeonsu", "연수 연수"],
        "line": "SeoulMTRSuinbundangseon",
        "order": 57
      },
      "id": 1213
    },
    {
      "type": "Feature",
      "geometry": {
        "type": "Point",
        "coordinates": [127.003333, 36.780556]
      },
      "properties": {
        "id": 146,
        "name": "온양온천 Onyang oncheon",
        "alternate_names": [
          "onyang oncheon",
          "온양온천",
          "onyangoncheon",
          "onyang oncheon onyang oncheon",
          "온양온천 온양온천"
        ],
        "line": "SeoulSubway1Hoseon",
        "order": 56
      },
      "id": 146
    },
    {
      "type": "Feature",
      "geometry": {
        "type": "Point",
        "coordinates": [126.680211, 37.464861]
      },
      "properties": {
        "id": 204,
        "name": "주안 Juan",
        "alternate_names": ["juan", "주안", "juan juan", "주안 주안"],
        "line": "SeoulSubway1Hoseon",
        "order": 56
      },
      "id": 204
    },
    {
      "type": "Feature",
      "geometry": {
        "type": "Point",
        "coordinates": [126.787936, 37.643066]
      },
      "properties": {
        "id": 440,
        "name": "백석 Baekseok",
        "alternate_names": [
          "baekseok",
          "백석",
          "baegseog",
          "baekseok baekseok",
          "백석 백석"
        ],
        "line": "SeoulSubway3Hoseon",
        "order": 56
      },
      "id": 440
    },
    {
      "type": "Feature",
      "geometry": {
        "type": "Point",
        "coordinates": [126.686648, 37.413049]
      },
      "properties": {
        "id": 1212,
        "name": "원인재 Woninjae",
        "alternate_names": [
          "woninjae",
          "원인재",
          "ueoninjae",
          "woninjae woninjae",
          "원인재 원인재"
        ],
        "line": "SeoulMTRSuinbundangseon",
        "order": 56
      },
      "id": 1212
    },
    {
      "type": "Feature",
      "geometry": {
        "type": "Point",
        "coordinates": [127.052939, 36.77765]
      },
      "properties": {
        "id": 145,
        "name": "배방 Baebang",
        "alternate_names": ["baebang", "배방", "baebang baebang", "배방 배방"],
        "line": "SeoulSubway1Hoseon",
        "order": 55
      },
      "id": 145
    },
    {
      "type": "Feature",
      "geometry": {
        "type": "Point",
        "coordinates": [126.694069, 37.464689]
      },
      "properties": {
        "id": 203,
        "name": "간석 Ganseok",
        "alternate_names": [
          "ganseok",
          "간석",
          "ganseog",
          "ganseok ganseok",
          "간석 간석"
        ],
        "line": "SeoulSubway1Hoseon",
        "order": 55
      },
      "id": 203
    },
    {
      "type": "Feature",
      "geometry": {
        "type": "Point",
        "coordinates": [126.695216, 37.407722]
      },
      "properties": {
        "id": 1211,
        "name": "남동인더스파크 Namdong Induspark",
        "alternate_names": [
          "namdong induspark",
          "남동인더스파크",
          "namdongindeoseupakeu",
          "namdong induspark namdong induspark",
          "남동인더스파크 남동인더스파크"
        ],
        "line": "SeoulMTRSuinbundangseon",
        "order": 55
      },
      "id": 1211
    },
    {
      "type": "Feature",
      "geometry": {
        "type": "Point",
        "coordinates": [127.084408, 36.788179]
      },
      "properties": {
        "id": 144,
        "name": "탕정 Tangjeong",
        "alternate_names": [
          "tangjeong",
          "탕정",
          "tangjeong tangjeong",
          "탕정 탕정"
        ],
        "line": "SeoulSubway1Hoseon",
        "order": 54
      },
      "id": 144
    },
    {
      "type": "Feature",
      "geometry": {
        "type": "Point",
        "coordinates": [126.703339, 37.471669]
      },
      "properties": {
        "id": 202,
        "name": "동암 Dongam",
        "alternate_names": ["dongam", "동암", "dongam dongam", "동암 동암"],
        "line": "SeoulSubway1Hoseon",
        "order": 54
      },
      "id": 202
    },
    {
      "type": "Feature",
      "geometry": {
        "type": "Point",
        "coordinates": [126.708627, 37.401637]
      },
      "properties": {
        "id": 1210,
        "name": "호구포 Hogupo",
        "alternate_names": [
          "hogupo",
          "호구포",
          "hogupo hogupo",
          "호구포 호구포"
        ],
        "line": "SeoulMTRSuinbundangseon",
        "order": 54
      },
      "id": 1210
    },
    {
      "type": "Feature",
      "geometry": {
        "type": "Point",
        "coordinates": [127.214289, 37.24483]
      },
      "properties": {
        "id": 1337,
        "name": "고진 Gojin",
        "alternate_names": ["gojin", "고진", "gojin gojin", "고진 고진"],
        "line": "SeoulLightRailTransitEverline",
        "order": 54
      },
      "id": 1337
    },
    {
      "type": "Feature",
      "geometry": {
        "type": "Point",
        "coordinates": [127.071466, 37.750669]
      },
      "properties": {
        "id": 1371,
        "name": "경기도청북부청사 Northern Gyeonggi-do Government",
        "alternate_names": [
          "northern gyeonggido government",
          "경기도청북부청사",
          "gyeonggidocheongbugbucheongsa",
          "gyeonggidocheongbukbucheongsa",
          "northern gyeonggido government northern gyeonggido government",
          "경기도청북부청사 경기도청북부청사"
        ],
        "line": "SeoulLightRailTransitUijeongbu",
        "order": 54
      },
      "id": 1371
    },
    {
      "type": "Feature",
      "geometry": {
        "type": "Point",
        "coordinates": [127.104581, 36.792178]
      },
      "properties": {
        "id": 143,
        "name": "아산 Asan",
        "alternate_names": ["asan", "아산", "asan asan", "아산 아산"],
        "line": "SeoulSubway1Hoseon",
        "order": 53
      },
      "id": 143
    },
    {
      "type": "Feature",
      "geometry": {
        "type": "Point",
        "coordinates": [126.707631, 37.483561]
      },
      "properties": {
        "id": 201,
        "name": "백운 Baegun",
        "alternate_names": ["baegun", "백운", "baegun baegun", "백운 백운"],
        "line": "SeoulSubway1Hoseon",
        "order": 53
      },
      "id": 201
    },
    {
      "type": "Feature",
      "geometry": {
        "type": "Point",
        "coordinates": [126.722478, 37.400614]
      },
      "properties": {
        "id": 1209,
        "name": "인천논현 Incheon Nonhyeon",
        "alternate_names": [
          "incheon nonhyeon",
          "인천논현",
          "incheonnonhyeon",
          "incheon nonhyeon incheon nonhyeon",
          "인천논현 인천논현"
        ],
        "line": "SeoulMTRSuinbundangseon",
        "order": 53
      },
      "id": 1209
    },
    {
      "type": "Feature",
      "geometry": {
        "type": "Point",
        "coordinates": [127.121197, 36.793792]
      },
      "properties": {
        "id": 142,
        "name": "쌍용(나사렛대) Ssangyong",
        "alternate_names": ["ssangyong", "쌍용", "나사렛대", "쌍용 나사렛대"],
        "line": "SeoulSubway1Hoseon",
        "order": 52
      },
      "id": 142
    },
    {
      "type": "Feature",
      "geometry": {
        "type": "Point",
        "coordinates": [126.723453, 37.490535]
      },
      "properties": {
        "id": 200,
        "name": "부평 Bupyeong",
        "alternate_names": [
          "bupyeong",
          "부평",
          "bupyeong bupyeong",
          "부평 부평"
        ],
        "line": "SeoulSubway1Hoseon",
        "order": 52
      },
      "id": 200
    },
    {
      "type": "Feature",
      "geometry": {
        "type": "Point",
        "coordinates": [127.629661, 37.476876]
      },
      "properties": {
        "id": 1050,
        "name": "지평 Jipyeong",
        "alternate_names": [
          "jipyeong",
          "지평",
          "jipyeong jipyeong",
          "지평 지평"
        ],
        "line": "SeoulMTRGyeongyijungangseon",
        "order": 52
      },
      "id": 1050
    },
    {
      "type": "Feature",
      "geometry": {
        "type": "Point",
        "coordinates": [126.733522, 37.40095]
      },
      "properties": {
        "id": 1208,
        "name": "소래포구 Soraepogu",
        "alternate_names": [
          "soraepogu",
          "소래포구",
          "solaepogu",
          "soraepogu soraepogu",
          "소래포구 소래포구"
        ],
        "line": "SeoulMTRSuinbundangseon",
        "order": 52
      },
      "id": 1208
    },
    {
      "type": "Feature",
      "geometry": {
        "type": "Point",
        "coordinates": [127.135539, 36.801111]
      },
      "properties": {
        "id": 141,
        "name": "봉명 Bongmyeong",
        "alternate_names": [
          "bongmyeong",
          "봉명",
          "bongmyeong bongmyeong",
          "봉명 봉명"
        ],
        "line": "SeoulSubway1Hoseon",
        "order": 51
      },
      "id": 141
    },
    {
      "type": "Feature",
      "geometry": {
        "type": "Point",
        "coordinates": [127.594405, 37.482511]
      },
      "properties": {
        "id": 1049,
        "name": "용문 Yongmun",
        "alternate_names": ["yongmun", "용문", "yongmun yongmun", "용문 용문"],
        "line": "SeoulMTRGyeongyijungangseon",
        "order": 51
      },
      "id": 1049
    },
    {
      "type": "Feature",
      "geometry": {
        "type": "Point",
        "coordinates": [126.742699, 37.391769]
      },
      "properties": {
        "id": 1207,
        "name": "월곶 Wolgot",
        "alternate_names": [
          "wolgot",
          "월곶",
          "ueolgoj",
          "wolgot wolgot",
          "월곶 월곶"
        ],
        "line": "SeoulMTRSuinbundangseon",
        "order": 51
      },
      "id": 1207
    },
    {
      "type": "Feature",
      "geometry": {
        "type": "Point",
        "coordinates": [127.063622, 37.748856]
      },
      "properties": {
        "id": 1370,
        "name": "새말 Sae-mal",
        "alternate_names": ["saemal", "새말", "saemal saemal", "새말 새말"],
        "line": "SeoulLightRailTransitUijeongbu",
        "order": 51
      },
      "id": 1370
    },
    {
      "type": "Feature",
      "geometry": {
        "type": "Point",
        "coordinates": [127.144444, 36.809167]
      },
      "properties": {
        "id": 140,
        "name": "천안 Cheonan",
        "alternate_names": ["cheonan", "천안", "cheonan cheonan", "천안 천안"],
        "line": "SeoulSubway1Hoseon",
        "order": 50
      },
      "id": 140
    },
    {
      "type": "Feature",
      "geometry": {
        "type": "Point",
        "coordinates": [126.75281, 37.48766]
      },
      "properties": {
        "id": 198,
        "name": "송내 Songnae",
        "alternate_names": ["songnae", "송내", "songnae songnae", "송내 송내"],
        "line": "SeoulSubway1Hoseon",
        "order": 50
      },
      "id": 198
    },
    {
      "type": "Feature",
      "geometry": {
        "type": "Point",
        "coordinates": [127.547082, 37.468495]
      },
      "properties": {
        "id": 1048,
        "name": "원덕(추읍산) Wondeok",
        "alternate_names": [
          "wondeok",
          "원덕",
          "ueondeog",
          "추읍산",
          "원덕 추읍산"
        ],
        "line": "SeoulMTRGyeongyijungangseon",
        "order": 50
      },
      "id": 1048
    },
    {
      "type": "Feature",
      "geometry": {
        "type": "Point",
        "coordinates": [126.745177, 37.379681]
      },
      "properties": {
        "id": 1206,
        "name": "달월 Dalwol",
        "alternate_names": [
          "dalwol",
          "달월",
          "dalueol",
          "darwol",
          "dalwol dalwol",
          "달월 달월"
        ],
        "line": "SeoulMTRSuinbundangseon",
        "order": 50
      },
      "id": 1206
    },
    {
      "type": "Feature",
      "geometry": {
        "type": "Point",
        "coordinates": [127.149, 36.832889]
      },
      "properties": {
        "id": 139,
        "name": "두정 Dujeong",
        "alternate_names": ["dujeong", "두정", "dujeong dujeong", "두정 두정"],
        "line": "SeoulSubway1Hoseon",
        "order": 49
      },
      "id": 139
    },
    {
      "type": "Feature",
      "geometry": {
        "type": "Point",
        "coordinates": [126.76455, 37.48655]
      },
      "properties": {
        "id": 197,
        "name": "중동 Jung-dong",
        "alternate_names": [
          "jungdong",
          "중동",
          "jungdong jungdong",
          "중동 중동"
        ],
        "line": "SeoulSubway1Hoseon",
        "order": 49
      },
      "id": 197
    },
    {
      "type": "Feature",
      "geometry": {
        "type": "Point",
        "coordinates": [127.491382, 37.49276]
      },
      "properties": {
        "id": 1047,
        "name": "양평 Yangpyeong",
        "alternate_names": [
          "yangpyeong",
          "양평",
          "yangpyeong yangpyeong",
          "양평 양평"
        ],
        "line": "SeoulMTRGyeongyijungangseon",
        "order": 49
      },
      "id": 1047
    },
    {
      "type": "Feature",
      "geometry": {
        "type": "Point",
        "coordinates": [126.738411, 37.362031]
      },
      "properties": {
        "id": 1205,
        "name": "오이도 Oido",
        "alternate_names": ["oido", "오이도", "oido oido", "오이도 오이도"],
        "line": "SeoulMTRSuinbundangseon",
        "order": 49
      },
      "id": 1205
    },
    {
      "type": "Feature",
      "geometry": {
        "type": "Point",
        "coordinates": [127.054722, 37.193056]
      },
      "properties": {
        "id": 49,
        "name": "서동탄 Seodongtan",
        "alternate_names": [
          "seodongtan",
          "서동탄",
          "seodongtan seodongtan",
          "서동탄 서동탄"
        ],
        "line": "SeoulSubway1Hoseon",
        "order": 48
      },
      "id": 49
    },
    {
      "type": "Feature",
      "geometry": {
        "type": "Point",
        "coordinates": [127.143889, 36.870833]
      },
      "properties": {
        "id": 138,
        "name": "직산 Jiksan",
        "alternate_names": [
          "jiksan",
          "직산",
          "jigsan",
          "jiksan jiksan",
          "직산 직산"
        ],
        "line": "SeoulSubway1Hoseon",
        "order": 48
      },
      "id": 138
    },
    {
      "type": "Feature",
      "geometry": {
        "type": "Point",
        "coordinates": [126.782661, 37.483961]
      },
      "properties": {
        "id": 196,
        "name": "부천 Bucheon",
        "alternate_names": ["bucheon", "부천", "bucheon bucheon", "부천 부천"],
        "line": "SeoulSubway1Hoseon",
        "order": 48
      },
      "id": 196
    },
    {
      "type": "Feature",
      "geometry": {
        "type": "Point",
        "coordinates": [127.223556, 37.539802]
      },
      "properties": {
        "id": 675,
        "name": "하남검단산 Hanam Geomdansan",
        "alternate_names": [
          "hanam geomdansan",
          "하남검단산",
          "hanamgeomdansan",
          "hanam geomdansan hanam geomdansan",
          "하남검단산 하남검단산"
        ],
        "line": "SeoulSubway5Hoseon",
        "order": 48
      },
      "id": 675
    },
    {
      "type": "Feature",
      "geometry": {
        "type": "Point",
        "coordinates": [127.473858, 37.505847]
      },
      "properties": {
        "id": 1046,
        "name": "오빈 Obin",
        "alternate_names": ["obin", "오빈", "obin obin", "오빈 오빈"],
        "line": "SeoulMTRGyeongyijungangseon",
        "order": 48
      },
      "id": 1046
    },
    {
      "type": "Feature",
      "geometry": {
        "type": "Point",
        "coordinates": [126.742789, 37.351661]
      },
      "properties": {
        "id": 1204,
        "name": "정왕 Jeongwang",
        "alternate_names": [
          "jeongwang",
          "정왕",
          "jeongoang",
          "jeongwang jeongwang",
          "정왕 정왕"
        ],
        "line": "SeoulMTRSuinbundangseon",
        "order": 48
      },
      "id": 1204
    },
    {
      "type": "Feature",
      "geometry": {
        "type": "Point",
        "coordinates": [127.033056, 37.206667]
      },
      "properties": {
        "id": 48,
        "name": "병점 Byeongjeom",
        "alternate_names": [
          "byeongjeom",
          "병점",
          "byeongjeom byeongjeom",
          "병점 병점"
        ],
        "line": "SeoulSubway1Hoseon",
        "order": 47
      },
      "id": 48
    },
    {
      "type": "Feature",
      "geometry": {
        "type": "Point",
        "coordinates": [127.126925, 36.916064]
      },
      "properties": {
        "id": 137,
        "name": "성환 Seonghwan",
        "alternate_names": [
          "seonghwan",
          "성환",
          "seonghoan",
          "seonghwan seonghwan",
          "성환 성환"
        ],
        "line": "SeoulSubway1Hoseon",
        "order": 47
      },
      "id": 137
    },
    {
      "type": "Feature",
      "geometry": {
        "type": "Point",
        "coordinates": [126.79545, 37.482731]
      },
      "properties": {
        "id": 195,
        "name": "소사 Sosa",
        "alternate_names": ["sosa", "소사", "sosa sosa", "소사 소사"],
        "line": "SeoulSubway1Hoseon",
        "order": 47
      },
      "id": 195
    },
    {
      "type": "Feature",
      "geometry": {
        "type": "Point",
        "coordinates": [126.738411, 37.362031]
      },
      "properties": {
        "id": 597,
        "name": "오이도 Oido",
        "alternate_names": ["oido", "오이도", "oido oido", "오이도 오이도"],
        "line": "SeoulSubway4Hoseon",
        "order": 47
      },
      "id": 597
    },
    {
      "type": "Feature",
      "geometry": {
        "type": "Point",
        "coordinates": [127.206972, 37.541636]
      },
      "properties": {
        "id": 674,
        "name": "하남시청(덕풍·신장) Hanam City Hall",
        "alternate_names": [
          "hanam city hall",
          "하남시청",
          "hanamsicheong",
          "덕풍·신장",
          "하남시청 덕풍·신장"
        ],
        "line": "SeoulSubway5Hoseon",
        "order": 47
      },
      "id": 674
    },
    {
      "type": "Feature",
      "geometry": {
        "type": "Point",
        "coordinates": [127.104354, 37.514661]
      },
      "properties": {
        "id": 872,
        "name": "잠실(송파구청) Jamsil",
        "alternate_names": ["jamsil", "잠실", "송파구청", "잠실 송파구청"],
        "line": "SeoulSubway8Hoseon",
        "order": 47
      },
      "id": 872
    },
    {
      "type": "Feature",
      "geometry": {
        "type": "Point",
        "coordinates": [127.443125, 37.513719]
      },
      "properties": {
        "id": 1045,
        "name": "아신(아세아연합신학대) Asin",
        "alternate_names": [
          "asin",
          "아신",
          "아세아연합신학대",
          "아신 아세아연합신학대"
        ],
        "line": "SeoulMTRGyeongyijungangseon",
        "order": 47
      },
      "id": 1045
    },
    {
      "type": "Feature",
      "geometry": {
        "type": "Point",
        "coordinates": [126.76725, 37.337472]
      },
      "properties": {
        "id": 1203,
        "name": "신길온천 Singil Oncheon",
        "alternate_names": [
          "singil oncheon",
          "신길온천",
          "singiloncheon",
          "singironcheon",
          "singil oncheon singil oncheon",
          "신길온천 신길온천"
        ],
        "line": "SeoulMTRSuinbundangseon",
        "order": 47
      },
      "id": 1203
    },
    {
      "type": "Feature",
      "geometry": {
        "type": "Point",
        "coordinates": [127.014167, 37.244167]
      },
      "properties": {
        "id": 47,
        "name": "세류 Seryu",
        "alternate_names": [
          "seryu",
          "세류",
          "selyu",
          "seryu seryu",
          "세류 세류"
        ],
        "line": "SeoulSubway1Hoseon",
        "order": 46
      },
      "id": 47
    },
    {
      "type": "Feature",
      "geometry": {
        "type": "Point",
        "coordinates": [127.085, 36.991083]
      },
      "properties": {
        "id": 136,
        "name": "평택 Pyeongtaek",
        "alternate_names": [
          "pyeongtaek",
          "평택",
          "pyeongtaeg",
          "pyeongtaek pyeongtaek",
          "평택 평택"
        ],
        "line": "SeoulSubway1Hoseon",
        "order": 46
      },
      "id": 136
    },
    {
      "type": "Feature",
      "geometry": {
        "type": "Point",
        "coordinates": [126.811586, 37.485117]
      },
      "properties": {
        "id": 194,
        "name": "역곡 Yeokgok",
        "alternate_names": [
          "yeokgok",
          "역곡",
          "yeoggog",
          "yeokgok yeokgok",
          "역곡 역곡"
        ],
        "line": "SeoulSubway1Hoseon",
        "order": 46
      },
      "id": 194
    },
    {
      "type": "Feature",
      "geometry": {
        "type": "Point",
        "coordinates": [126.742789, 37.351661]
      },
      "properties": {
        "id": 596,
        "name": "정왕 Jeongwang",
        "alternate_names": [
          "jeongwang",
          "정왕",
          "jeongoang",
          "jeongwang jeongwang",
          "정왕 정왕"
        ],
        "line": "SeoulSubway4Hoseon",
        "order": 46
      },
      "id": 596
    },
    {
      "type": "Feature",
      "geometry": {
        "type": "Point",
        "coordinates": [127.203864, 37.552034]
      },
      "properties": {
        "id": 673,
        "name": "하남풍산 Hanam Pungsan",
        "alternate_names": [
          "hanam pungsan",
          "하남풍산",
          "hanampungsan",
          "hanam pungsan hanam pungsan",
          "하남풍산 하남풍산"
        ],
        "line": "SeoulSubway5Hoseon",
        "order": 46
      },
      "id": 673
    },
    {
      "type": "Feature",
      "geometry": {
        "type": "Point",
        "coordinates": [127.399601, 37.51591]
      },
      "properties": {
        "id": 1044,
        "name": "국수 Guksu",
        "alternate_names": [
          "guksu",
          "국수",
          "gugsu",
          "guksu guksu",
          "국수 국수"
        ],
        "line": "SeoulMTRGyeongyijungangseon",
        "order": 46
      },
      "id": 1044
    },
    {
      "type": "Feature",
      "geometry": {
        "type": "Point",
        "coordinates": [126.78845, 37.327089]
      },
      "properties": {
        "id": 1202,
        "name": "안산 Ansan",
        "alternate_names": ["ansan", "안산", "ansan ansan", "안산 안산"],
        "line": "SeoulMTRSuinbundangseon",
        "order": 46
      },
      "id": 1202
    },
    {
      "type": "Feature",
      "geometry": {
        "type": "Point",
        "coordinates": [127.056975, 37.74525]
      },
      "properties": {
        "id": 1369,
        "name": "동오 Dong-o",
        "alternate_names": ["dongo", "동오", "dongo dongo", "동오 동오"],
        "line": "SeoulLightRailTransitUijeongbu",
        "order": 46
      },
      "id": 1369
    },
    {
      "type": "Feature",
      "geometry": {
        "type": "Point",
        "coordinates": [126.999422, 37.265917]
      },
      "properties": {
        "id": 46,
        "name": "수원 Suwon",
        "alternate_names": [
          "suwon",
          "수원",
          "suueon",
          "suwon suwon",
          "수원 수원"
        ],
        "line": "SeoulSubway1Hoseon",
        "order": 45
      },
      "id": 46
    },
    {
      "type": "Feature",
      "geometry": {
        "type": "Point",
        "coordinates": [127.070278, 37.018889]
      },
      "properties": {
        "id": 135,
        "name": "평택지제 PyeongtaekJije",
        "alternate_names": [
          "pyeongtaekjije",
          "평택지제",
          "pyeongtaegjije",
          "pyeongtaekjije pyeongtaekjije",
          "평택지제 평택지제"
        ],
        "line": "SeoulSubway1Hoseon",
        "order": 45
      },
      "id": 135
    },
    {
      "type": "Feature",
      "geometry": {
        "type": "Point",
        "coordinates": [126.823039, 37.492031]
      },
      "properties": {
        "id": 193,
        "name": "온수 Onsu",
        "alternate_names": ["onsu", "온수", "onsu onsu", "온수 온수"],
        "line": "SeoulSubway1Hoseon",
        "order": 45
      },
      "id": 193
    },
    {
      "type": "Feature",
      "geometry": {
        "type": "Point",
        "coordinates": [126.76725, 37.337472]
      },
      "properties": {
        "id": 595,
        "name": "신길온천 Singil Oncheon",
        "alternate_names": [
          "singil oncheon",
          "신길온천",
          "singiloncheon",
          "singironcheon",
          "singil oncheon singil oncheon",
          "신길온천 신길온천"
        ],
        "line": "SeoulSubway4Hoseon",
        "order": 45
      },
      "id": 595
    },
    {
      "type": "Feature",
      "geometry": {
        "type": "Point",
        "coordinates": [127.193877, 37.560927]
      },
      "properties": {
        "id": 672,
        "name": "미사 Misa",
        "alternate_names": ["misa", "미사", "misa misa", "미사 미사"],
        "line": "SeoulSubway5Hoseon",
        "order": 45
      },
      "id": 672
    },
    {
      "type": "Feature",
      "geometry": {
        "type": "Point",
        "coordinates": [127.152781, 37.49499]
      },
      "properties": {
        "id": 721,
        "name": "마천 Macheon",
        "alternate_names": ["macheon", "마천", "macheon macheon", "마천 마천"],
        "line": "SeoulSubway5Hoseon",
        "order": 45
      },
      "id": 721
    },
    {
      "type": "Feature",
      "geometry": {
        "type": "Point",
        "coordinates": [127.373085, 37.525548]
      },
      "properties": {
        "id": 1043,
        "name": "신원 Sinwon",
        "alternate_names": [
          "sinwon",
          "신원",
          "sinueon",
          "sinwon sinwon",
          "신원 신원"
        ],
        "line": "SeoulMTRGyeongyijungangseon",
        "order": 45
      },
      "id": 1043
    },
    {
      "type": "Feature",
      "geometry": {
        "type": "Point",
        "coordinates": [126.806194, 37.320583]
      },
      "properties": {
        "id": 1201,
        "name": "초지 Choji",
        "alternate_names": ["choji", "초지", "choji choji", "초지 초지"],
        "line": "SeoulMTRSuinbundangseon",
        "order": 45
      },
      "id": 1201
    },
    {
      "type": "Feature",
      "geometry": {
        "type": "Point",
        "coordinates": [126.988889, 37.285]
      },
      "properties": {
        "id": 45,
        "name": "화서 Hwaseo",
        "alternate_names": [
          "hwaseo",
          "화서",
          "hoaseo",
          "hwaseo hwaseo",
          "화서 화서"
        ],
        "line": "SeoulSubway1Hoseon",
        "order": 44
      },
      "id": 45
    },
    {
      "type": "Feature",
      "geometry": {
        "type": "Point",
        "coordinates": [127.053889, 37.056389]
      },
      "properties": {
        "id": 134,
        "name": "서정리 Seojeong-ri",
        "alternate_names": [
          "seojeongri",
          "서정리",
          "seojeongli",
          "seojeongri seojeongri",
          "서정리 서정리"
        ],
        "line": "SeoulSubway1Hoseon",
        "order": 44
      },
      "id": 134
    },
    {
      "type": "Feature",
      "geometry": {
        "type": "Point",
        "coordinates": [126.845333, 37.494489]
      },
      "properties": {
        "id": 192,
        "name": "오류동 Oryu-dong",
        "alternate_names": [
          "oryudong",
          "오류동",
          "olyudong",
          "oryudong oryudong",
          "오류동 오류동"
        ],
        "line": "SeoulSubway1Hoseon",
        "order": 44
      },
      "id": 192
    },
    {
      "type": "Feature",
      "geometry": {
        "type": "Point",
        "coordinates": [126.777636, 37.652167]
      },
      "properties": {
        "id": 439,
        "name": "마두 Madu",
        "alternate_names": ["madu", "마두", "madu madu", "마두 마두"],
        "line": "SeoulSubway3Hoseon",
        "order": 44
      },
      "id": 439
    },
    {
      "type": "Feature",
      "geometry": {
        "type": "Point",
        "coordinates": [127.17593, 37.55749]
      },
      "properties": {
        "id": 671,
        "name": "강일 Gangil",
        "alternate_names": ["gangil", "강일", "gangil gangil", "강일 강일"],
        "line": "SeoulSubway5Hoseon",
        "order": 44
      },
      "id": 671
    },
    {
      "type": "Feature",
      "geometry": {
        "type": "Point",
        "coordinates": [127.14415, 37.493105]
      },
      "properties": {
        "id": 720,
        "name": "거여 Geoyeo",
        "alternate_names": ["geoyeo", "거여", "geoyeo geoyeo", "거여 거여"],
        "line": "SeoulSubway5Hoseon",
        "order": 44
      },
      "id": 720
    },
    {
      "type": "Feature",
      "geometry": {
        "type": "Point",
        "coordinates": [127.329145, 37.545996]
      },
      "properties": {
        "id": 1042,
        "name": "양수 Yangsu",
        "alternate_names": ["yangsu", "양수", "yangsu yangsu", "양수 양수"],
        "line": "SeoulMTRGyeongyijungangseon",
        "order": 44
      },
      "id": 1042
    },
    {
      "type": "Feature",
      "geometry": {
        "type": "Point",
        "coordinates": [126.823056, 37.316861]
      },
      "properties": {
        "id": 1200,
        "name": "고잔 Gojan",
        "alternate_names": ["gojan", "고잔", "gojan gojan", "고잔 고잔"],
        "line": "SeoulMTRSuinbundangseon",
        "order": 44
      },
      "id": 1200
    },
    {
      "type": "Feature",
      "geometry": {
        "type": "Point",
        "coordinates": [126.972222, 37.300278]
      },
      "properties": {
        "id": 44,
        "name": "성균관대 Sungkyunkwan University",
        "alternate_names": [
          "sungkyunkwan univ",
          "성균관대",
          "seonggyungoandae",
          "seonggyungwandae",
          "sungkyunkwan univ sungkyunkwan univ",
          "성균관대 성균관대"
        ],
        "line": "SeoulSubway1Hoseon",
        "order": 43
      },
      "id": 44
    },
    {
      "type": "Feature",
      "geometry": {
        "type": "Point",
        "coordinates": [127.054167, 37.075278]
      },
      "properties": {
        "id": 133,
        "name": "송탄 Songtan",
        "alternate_names": ["songtan", "송탄", "songtan songtan", "송탄 송탄"],
        "line": "SeoulSubway1Hoseon",
        "order": 43
      },
      "id": 133
    },
    {
      "type": "Feature",
      "geometry": {
        "type": "Point",
        "coordinates": [126.858481, 37.494481]
      },
      "properties": {
        "id": 191,
        "name": "개봉 Gaebong",
        "alternate_names": ["gaebong", "개봉", "gaebong gaebong", "개봉 개봉"],
        "line": "SeoulSubway1Hoseon",
        "order": 43
      },
      "id": 191
    },
    {
      "type": "Feature",
      "geometry": {
        "type": "Point",
        "coordinates": [127.166417, 37.556712]
      },
      "properties": {
        "id": 670,
        "name": "상일동 Sangil-dong",
        "alternate_names": [
          "sangildong",
          "상일동",
          "sangildong sangildong",
          "상일동 상일동"
        ],
        "line": "SeoulSubway5Hoseon",
        "order": 43
      },
      "id": 670
    },
    {
      "type": "Feature",
      "geometry": {
        "type": "Point",
        "coordinates": [127.13482, 37.498079]
      },
      "properties": {
        "id": 719,
        "name": "개롱 Gaerong",
        "alternate_names": [
          "gaerong",
          "개롱",
          "gaelong",
          "gaerong gaerong",
          "개롱 개롱"
        ],
        "line": "SeoulSubway5Hoseon",
        "order": 43
      },
      "id": 719
    },
    {
      "type": "Feature",
      "geometry": {
        "type": "Point",
        "coordinates": [127.310171, 37.554715]
      },
      "properties": {
        "id": 1041,
        "name": "운길산 Ungilsan",
        "alternate_names": [
          "ungilsan",
          "운길산",
          "ungilsan ungilsan",
          "운길산 운길산"
        ],
        "line": "SeoulMTRGyeongyijungangseon",
        "order": 43
      },
      "id": 1041
    },
    {
      "type": "Feature",
      "geometry": {
        "type": "Point",
        "coordinates": [126.838642, 37.315958]
      },
      "properties": {
        "id": 1199,
        "name": "중앙 Jungang",
        "alternate_names": ["jungang", "중앙", "jungang jungang", "중앙 중앙"],
        "line": "SeoulMTRSuinbundangseon",
        "order": 43
      },
      "id": 1199
    },
    {
      "type": "Feature",
      "geometry": {
        "type": "Point",
        "coordinates": [126.948333, 37.321111]
      },
      "properties": {
        "id": 43,
        "name": "의왕 Uiwang",
        "alternate_names": [
          "uiwang",
          "의왕",
          "euioang",
          "euiwang",
          "uiwang uiwang",
          "의왕 의왕"
        ],
        "line": "SeoulSubway1Hoseon",
        "order": 42
      },
      "id": 43
    },
    {
      "type": "Feature",
      "geometry": {
        "type": "Point",
        "coordinates": [127.06225, 37.109442]
      },
      "properties": {
        "id": 132,
        "name": "진위 Jinwi",
        "alternate_names": [
          "jinwi",
          "진위",
          "jinui",
          "jinwi jinwi",
          "진위 진위"
        ],
        "line": "SeoulSubway1Hoseon",
        "order": 42
      },
      "id": 132
    },
    {
      "type": "Feature",
      "geometry": {
        "type": "Point",
        "coordinates": [126.869722, 37.496111]
      },
      "properties": {
        "id": 190,
        "name": "구일 Guil",
        "alternate_names": ["guil", "구일", "guil guil", "구일 구일"],
        "line": "SeoulSubway1Hoseon",
        "order": 42
      },
      "id": 190
    },
    {
      "type": "Feature",
      "geometry": {
        "type": "Point",
        "coordinates": [127.069191, 37.540373]
      },
      "properties": {
        "id": 429,
        "name": "건대입구 Konkuk Univ.",
        "alternate_names": [
          "konkuk univ",
          "건대입구",
          "geondaeibgu",
          "geondaeipgu",
          "konkuk univ konkuk univ",
          "건대입구 건대입구"
        ],
        "line": "SeoulSubway2Hoseon",
        "order": 42
      },
      "id": 429
    },
    {
      "type": "Feature",
      "geometry": {
        "type": "Point",
        "coordinates": [127.154151, 37.555004]
      },
      "properties": {
        "id": 669,
        "name": "고덕 Godeok",
        "alternate_names": [
          "godeok",
          "고덕",
          "godeog",
          "godeok godeok",
          "고덕 고덕"
        ],
        "line": "SeoulSubway5Hoseon",
        "order": 42
      },
      "id": 669
    },
    {
      "type": "Feature",
      "geometry": {
        "type": "Point",
        "coordinates": [127.128319, 37.502129]
      },
      "properties": {
        "id": 718,
        "name": "오금 Ogeum",
        "alternate_names": ["ogeum", "오금", "ogeum ogeum", "오금 오금"],
        "line": "SeoulSubway5Hoseon",
        "order": 42
      },
      "id": 718
    },
    {
      "type": "Feature",
      "geometry": {
        "type": "Point",
        "coordinates": [127.243719, 37.546944]
      },
      "properties": {
        "id": 1040,
        "name": "팔당 Paldang",
        "alternate_names": ["paldang", "팔당", "paldang paldang", "팔당 팔당"],
        "line": "SeoulMTRGyeongyijungangseon",
        "order": 42
      },
      "id": 1040
    },
    {
      "type": "Feature",
      "geometry": {
        "type": "Point",
        "coordinates": [126.853581, 37.309772]
      },
      "properties": {
        "id": 1198,
        "name": "한대앞 Hanyang University at Ansan",
        "alternate_names": [
          "hanyang univ at ansan",
          "한대앞",
          "handaeap",
          "hanyang univ at ansan hanyang univ at ansan",
          "한대앞 한대앞"
        ],
        "line": "SeoulMTRSuinbundangseon",
        "order": 42
      },
      "id": 1198
    },
    {
      "type": "Feature",
      "geometry": {
        "type": "Point",
        "coordinates": [126.948333, 37.344444]
      },
      "properties": {
        "id": 42,
        "name": "당정 Dangjeong",
        "alternate_names": [
          "dangjeong",
          "당정",
          "dangjeong dangjeong",
          "당정 당정"
        ],
        "line": "SeoulSubway1Hoseon",
        "order": 41
      },
      "id": 42
    },
    {
      "type": "Feature",
      "geometry": {
        "type": "Point",
        "coordinates": [127.067222, 37.145556]
      },
      "properties": {
        "id": 131,
        "name": "오산 Osan",
        "alternate_names": ["osan", "오산", "osan osan", "오산 오산"],
        "line": "SeoulSubway1Hoseon",
        "order": 41
      },
      "id": 131
    },
    {
      "type": "Feature",
      "geometry": {
        "type": "Point",
        "coordinates": [127.085916, 37.537077]
      },
      "properties": {
        "id": 428,
        "name": "구의(광진구청) Guui",
        "alternate_names": [
          "guui",
          "구의",
          "gueui",
          "광진구청",
          "구의 광진구청"
        ],
        "line": "SeoulSubway2Hoseon",
        "order": 41
      },
      "id": 428
    },
    {
      "type": "Feature",
      "geometry": {
        "type": "Point",
        "coordinates": [126.78845, 37.327089]
      },
      "properties": {
        "id": 521,
        "name": "안산 Ansan",
        "alternate_names": ["ansan", "안산", "ansan ansan", "안산 안산"],
        "line": "SeoulSubway4Hoseon",
        "order": 41
      },
      "id": 521
    },
    {
      "type": "Feature",
      "geometry": {
        "type": "Point",
        "coordinates": [127.143999, 37.55137]
      },
      "properties": {
        "id": 668,
        "name": "명일 Myeongil",
        "alternate_names": [
          "myeongil",
          "명일",
          "myeongil myeongil",
          "명일 명일"
        ],
        "line": "SeoulSubway5Hoseon",
        "order": 41
      },
      "id": 668
    },
    {
      "type": "Feature",
      "geometry": {
        "type": "Point",
        "coordinates": [127.126133, 37.508857]
      },
      "properties": {
        "id": 717,
        "name": "방이 Bangi",
        "alternate_names": ["bangi", "방이", "bangi bangi", "방이 방이"],
        "line": "SeoulSubway5Hoseon",
        "order": 41
      },
      "id": 717
    },
    {
      "type": "Feature",
      "geometry": {
        "type": "Point",
        "coordinates": [127.112365, 37.5174]
      },
      "properties": {
        "id": 871,
        "name": "몽촌토성(평화의문) Mongcheontoseong(World Peace Gate)",
        "alternate_names": [
          "mongcheontoseong",
          "몽촌토성",
          "mongchontoseong",
          "평화의문",
          "world peace gate",
          "mongcheontoseong world peace gate",
          "몽촌토성 평화의문"
        ],
        "line": "SeoulSubway8Hoseon",
        "order": 41
      },
      "id": 871
    },
    {
      "type": "Feature",
      "geometry": {
        "type": "Point",
        "coordinates": [127.222921, 37.579574]
      },
      "properties": {
        "id": 1039,
        "name": "도심 Dosim",
        "alternate_names": ["dosim", "도심", "dosim dosim", "도심 도심"],
        "line": "SeoulMTRGyeongyijungangseon",
        "order": 41
      },
      "id": 1039
    },
    {
      "type": "Feature",
      "geometry": {
        "type": "Point",
        "coordinates": [126.85685, 37.28998]
      },
      "properties": {
        "id": 1197,
        "name": "사리 Sari",
        "alternate_names": ["sari", "사리", "sali", "sari sari", "사리 사리"],
        "line": "SeoulMTRSuinbundangseon",
        "order": 41
      },
      "id": 1197
    },
    {
      "type": "Feature",
      "geometry": {
        "type": "Point",
        "coordinates": [127.218508, 37.25898]
      },
      "properties": {
        "id": 1336,
        "name": "보평 Bopyeong",
        "alternate_names": [
          "bopyeong",
          "보평",
          "bopyeong bopyeong",
          "보평 보평"
        ],
        "line": "SeoulLightRailTransitEverline",
        "order": 41
      },
      "id": 1336
    },
    {
      "type": "Feature",
      "geometry": {
        "type": "Point",
        "coordinates": [126.948611, 37.353611]
      },
      "properties": {
        "id": 41,
        "name": "군포 Gunpo",
        "alternate_names": ["gunpo", "군포", "gunpo gunpo", "군포 군포"],
        "line": "SeoulSubway1Hoseon",
        "order": 40
      },
      "id": 41
    },
    {
      "type": "Feature",
      "geometry": {
        "type": "Point",
        "coordinates": [127.063056, 37.169444]
      },
      "properties": {
        "id": 130,
        "name": "오산대 Osan College",
        "alternate_names": [
          "osan college",
          "오산대",
          "osandae",
          "osan college osan college",
          "오산대 오산대"
        ],
        "line": "SeoulSubway1Hoseon",
        "order": 40
      },
      "id": 130
    },
    {
      "type": "Feature",
      "geometry": {
        "type": "Point",
        "coordinates": [127.094681, 37.535095]
      },
      "properties": {
        "id": 427,
        "name": "강변(동서울터미널) Gangbyeon",
        "alternate_names": [
          "gangbyeon",
          "강변",
          "동서울터미널",
          "강변 동서울터미널"
        ],
        "line": "SeoulSubway2Hoseon",
        "order": 40
      },
      "id": 427
    },
    {
      "type": "Feature",
      "geometry": {
        "type": "Point",
        "coordinates": [126.806194, 37.320583]
      },
      "properties": {
        "id": 520,
        "name": "초지 Choji",
        "alternate_names": ["choji", "초지", "choji choji", "초지 초지"],
        "line": "SeoulSubway4Hoseon",
        "order": 40
      },
      "id": 520
    },
    {
      "type": "Feature",
      "geometry": {
        "type": "Point",
        "coordinates": [127.142853, 37.545477]
      },
      "properties": {
        "id": 667,
        "name": "굽은다리(강동구민회관앞) Gubeundari",
        "alternate_names": [
          "gubeundari",
          "굽은다리",
          "gubeundali",
          "강동구민회관앞",
          "굽은다리 강동구민회관앞"
        ],
        "line": "SeoulSubway5Hoseon",
        "order": 40
      },
      "id": 667
    },
    {
      "type": "Feature",
      "geometry": {
        "type": "Point",
        "coordinates": [127.130288, 37.516269]
      },
      "properties": {
        "id": 716,
        "name": "올림픽공원(한국체대) Olympic Park",
        "alternate_names": [
          "olympic park",
          "올림픽공원",
          "ollimpiggongueon",
          "olrimpikgongwon",
          "한국체대",
          "올림픽공원 한국체대"
        ],
        "line": "SeoulSubway5Hoseon",
        "order": 40
      },
      "id": 716
    },
    {
      "type": "Feature",
      "geometry": {
        "type": "Point",
        "coordinates": [126.838713, 37.486637]
      },
      "properties": {
        "id": 855,
        "name": "천왕 Cheonwang",
        "alternate_names": [
          "cheonwang",
          "천왕",
          "cheonoang",
          "cheonwang cheonwang",
          "천왕 천왕"
        ],
        "line": "SeoulSubway7Hoseon",
        "order": 40
      },
      "id": 855
    },
    {
      "type": "Feature",
      "geometry": {
        "type": "Point",
        "coordinates": [127.208932, 37.586826]
      },
      "properties": {
        "id": 975,
        "name": "덕소 Deokso",
        "alternate_names": [
          "deokso",
          "덕소",
          "deogso",
          "deokso deokso",
          "덕소 덕소"
        ],
        "line": "SeoulMTRGyeongyijungangseon",
        "order": 40
      },
      "id": 975
    },
    {
      "type": "Feature",
      "geometry": {
        "type": "Point",
        "coordinates": [126.879483, 37.264179]
      },
      "properties": {
        "id": 1196,
        "name": "야목 Yamok",
        "alternate_names": [
          "yamok",
          "야목",
          "yamog",
          "yamok yamok",
          "야목 야목"
        ],
        "line": "SeoulMTRSuinbundangseon",
        "order": 40
      },
      "id": 1196
    },
    {
      "type": "Feature",
      "geometry": {
        "type": "Point",
        "coordinates": [126.943333, 37.3725]
      },
      "properties": {
        "id": 40,
        "name": "금정 Geumjeong",
        "alternate_names": [
          "geumjeong",
          "금정",
          "geumjeong geumjeong",
          "금정 금정"
        ],
        "line": "SeoulSubway1Hoseon",
        "order": 39
      },
      "id": 40
    },
    {
      "type": "Feature",
      "geometry": {
        "type": "Point",
        "coordinates": [127.043333, 37.1875]
      },
      "properties": {
        "id": 129,
        "name": "세마 Sema",
        "alternate_names": ["sema", "세마", "sema sema", "세마 세마"],
        "line": "SeoulSubway1Hoseon",
        "order": 39
      },
      "id": 129
    },
    {
      "type": "Feature",
      "geometry": {
        "type": "Point",
        "coordinates": [127.10379, 37.520733]
      },
      "properties": {
        "id": 426,
        "name": "잠실나루 Jamsillaru",
        "alternate_names": [
          "jamsillaru",
          "잠실나루",
          "jamsilnalu",
          "jamsillaru jamsillaru",
          "잠실나루 잠실나루"
        ],
        "line": "SeoulSubway2Hoseon",
        "order": 39
      },
      "id": 426
    },
    {
      "type": "Feature",
      "geometry": {
        "type": "Point",
        "coordinates": [126.823056, 37.316861]
      },
      "properties": {
        "id": 519,
        "name": "고잔 Gojan",
        "alternate_names": ["gojan", "고잔", "gojan gojan", "고잔 고잔"],
        "line": "SeoulSubway4Hoseon",
        "order": 39
      },
      "id": 519
    },
    {
      "type": "Feature",
      "geometry": {
        "type": "Point",
        "coordinates": [127.140004, 37.537801]
      },
      "properties": {
        "id": 666,
        "name": "길동 Gil-dong",
        "alternate_names": ["gildong", "길동", "gildong gildong", "길동 길동"],
        "line": "SeoulSubway5Hoseon",
        "order": 39
      },
      "id": 666
    },
    {
      "type": "Feature",
      "geometry": {
        "type": "Point",
        "coordinates": [127.136248, 37.527788]
      },
      "properties": {
        "id": 715,
        "name": "둔촌동 Dunchon-dong",
        "alternate_names": [
          "dunchondong",
          "둔촌동",
          "dunchondong dunchondong",
          "둔촌동 둔촌동"
        ],
        "line": "SeoulSubway5Hoseon",
        "order": 39
      },
      "id": 715
    },
    {
      "type": "Feature",
      "geometry": {
        "type": "Point",
        "coordinates": [127.102231, 37.613174]
      },
      "properties": {
        "id": 761,
        "name": "신내 Sinnae",
        "alternate_names": ["sinnae", "신내", "sinnae sinnae", "신내 신내"],
        "line": "SeoulSubway6Hoseon",
        "order": 39
      },
      "id": 761
    },
    {
      "type": "Feature",
      "geometry": {
        "type": "Point",
        "coordinates": [126.854876, 37.479252]
      },
      "properties": {
        "id": 854,
        "name": "광명사거리 Gwangmyeongsageori",
        "alternate_names": [
          "gwangmyeongsageori",
          "광명사거리",
          "goangmyeongsageoli",
          "gwangmyeongsageori gwangmyeongsageori",
          "광명사거리 광명사거리"
        ],
        "line": "SeoulSubway7Hoseon",
        "order": 39
      },
      "id": 854
    },
    {
      "type": "Feature",
      "geometry": {
        "type": "Point",
        "coordinates": [127.194389, 37.604361]
      },
      "properties": {
        "id": 974,
        "name": "양정 Yangjeong",
        "alternate_names": [
          "yangjeong",
          "양정",
          "yangjeong yangjeong",
          "양정 양정"
        ],
        "line": "SeoulMTRGyeongyijungangseon",
        "order": 39
      },
      "id": 974
    },
    {
      "type": "Feature",
      "geometry": {
        "type": "Point",
        "coordinates": [126.90879, 37.250102]
      },
      "properties": {
        "id": 1195,
        "name": "어천 Eocheon",
        "alternate_names": ["eocheon", "어천", "eocheon eocheon", "어천 어천"],
        "line": "SeoulMTRSuinbundangseon",
        "order": 39
      },
      "id": 1195
    },
    {
      "type": "Feature",
      "geometry": {
        "type": "Point",
        "coordinates": [126.935556, 37.385]
      },
      "properties": {
        "id": 39,
        "name": "명학 Myeonghak",
        "alternate_names": [
          "myeonghak",
          "명학",
          "myeonghag",
          "myeonghak myeonghak",
          "명학 명학"
        ],
        "line": "SeoulSubway1Hoseon",
        "order": 38
      },
      "id": 39
    },
    {
      "type": "Feature",
      "geometry": {
        "type": "Point",
        "coordinates": [127.100159, 37.513262]
      },
      "properties": {
        "id": 425,
        "name": "잠실(송파구청) Jamsil",
        "alternate_names": ["jamsil", "잠실", "송파구청", "잠실 송파구청"],
        "line": "SeoulSubway2Hoseon",
        "order": 38
      },
      "id": 425
    },
    {
      "type": "Feature",
      "geometry": {
        "type": "Point",
        "coordinates": [126.773249, 37.659659]
      },
      "properties": {
        "id": 438,
        "name": "정발산 Jeongbalsan",
        "alternate_names": [
          "jeongbalsan",
          "정발산",
          "jeongbalsan jeongbalsan",
          "정발산 정발산"
        ],
        "line": "SeoulSubway3Hoseon",
        "order": 38
      },
      "id": 438
    },
    {
      "type": "Feature",
      "geometry": {
        "type": "Point",
        "coordinates": [126.838642, 37.315958]
      },
      "properties": {
        "id": 518,
        "name": "중앙 Jungang",
        "alternate_names": ["jungang", "중앙", "jungang jungang", "중앙 중앙"],
        "line": "SeoulSubway4Hoseon",
        "order": 38
      },
      "id": 518
    },
    {
      "type": "Feature",
      "geometry": {
        "type": "Point",
        "coordinates": [127.132481, 37.535804]
      },
      "properties": {
        "id": 665,
        "name": "강동 Gangdong",
        "alternate_names": [
          "gangdong",
          "강동",
          "gangdong gangdong",
          "강동 강동"
        ],
        "line": "SeoulSubway5Hoseon",
        "order": 38
      },
      "id": 665
    },
    {
      "type": "Feature",
      "geometry": {
        "type": "Point",
        "coordinates": [127.091401, 37.617283]
      },
      "properties": {
        "id": 760,
        "name": "봉화산(서울의료원) Bonghwasan",
        "alternate_names": [
          "bonghwasan",
          "봉화산",
          "bonghoasan",
          "서울의료원",
          "봉화산 서울의료원"
        ],
        "line": "SeoulSubway6Hoseon",
        "order": 38
      },
      "id": 760
    },
    {
      "type": "Feature",
      "geometry": {
        "type": "Point",
        "coordinates": [126.867911, 37.47605]
      },
      "properties": {
        "id": 853,
        "name": "철산 Cheolsan",
        "alternate_names": [
          "cheolsan",
          "철산",
          "cheolsan cheolsan",
          "철산 철산"
        ],
        "line": "SeoulSubway7Hoseon",
        "order": 38
      },
      "id": 853
    },
    {
      "type": "Feature",
      "geometry": {
        "type": "Point",
        "coordinates": [127.161195, 37.608813]
      },
      "properties": {
        "id": 973,
        "name": "도농 Donong",
        "alternate_names": ["donong", "도농", "donong donong", "도농 도농"],
        "line": "SeoulMTRGyeongyijungangseon",
        "order": 38
      },
      "id": 973
    },
    {
      "type": "Feature",
      "geometry": {
        "type": "Point",
        "coordinates": [126.963676, 37.24304]
      },
      "properties": {
        "id": 1194,
        "name": "오목천 Omokcheon",
        "alternate_names": [
          "omokcheon",
          "오목천",
          "omogcheon",
          "omokcheon omokcheon",
          "오목천 오목천"
        ],
        "line": "SeoulMTRSuinbundangseon",
        "order": 38
      },
      "id": 1194
    },
    {
      "type": "Feature",
      "geometry": {
        "type": "Point",
        "coordinates": [126.9225, 37.402222]
      },
      "properties": {
        "id": 38,
        "name": "안양 Anyang",
        "alternate_names": ["anyang", "안양", "anyang anyang", "안양 안양"],
        "line": "SeoulSubway1Hoseon",
        "order": 37
      },
      "id": 38
    },
    {
      "type": "Feature",
      "geometry": {
        "type": "Point",
        "coordinates": [127.086162, 37.511687]
      },
      "properties": {
        "id": 424,
        "name": "잠실새내 Jamsilsaenae",
        "alternate_names": [
          "jamsilsaenae",
          "잠실새내",
          "jamsilsaenae jamsilsaenae",
          "잠실새내 잠실새내"
        ],
        "line": "SeoulSubway2Hoseon",
        "order": 37
      },
      "id": 424
    },
    {
      "type": "Feature",
      "geometry": {
        "type": "Point",
        "coordinates": [126.853581, 37.309772]
      },