{
  "type": "FeatureCollection",
  "features": [
    {
      "type": "Feature",
      "geometry": { "type": "Point", "coordinates": [13.427419, 52.544802] },
      "properties": { "id": 9, "name": "Prenzlauer Allee", "line": "S85" },
      "id": 9
    },
    {
      "type": "Feature",
      "geometry": { "type": "Point", "coordinates": [13.412279, 52.567281] },
      "properties": { "id": 37, "name": "Pankow", "line": "S85" },
      "id": 37
    },
    {
      "type": "Feature",
      "geometry": { "type": "Point", "coordinates": [13.475848, 52.51358] },
      "properties": {
        "id": 63,
        "name": "Frankfurter Allee",
        "line": "S85"
      },
      "id": 63
    },
    {
      "type": "Feature",
      "geometry": { "type": "Point", "coordinates": [13.489505, 52.467581] },
      "properties": { "id": 153, "name": "Baumschulenweg", "line": "S85" },
      "id": 153
    },
    {
      "type": "Feature",
      "geometry": { "type": "Point", "coordinates": [13.524028, 52.446695] },
      "properties": { "id": 158, "name": "Johannisthal", "line": "S85" },
      "id": 158
    },
    {
      "type": "Feature",
      "geometry": { "type": "Point", "coordinates": [13.540553, 52.435102] },
      "properties": { "id": 166, "name": "Adlershof", "line": "S85" },
      "id": 166
    },
    {
      "type": "Feature",
      "geometry": { "type": "Point", "coordinates": [13.438356, 52.540724] },
      "properties": {
        "id": 328,
        "name": "Greifswalder Straße",
        "line": "S85"
      },
      "id": 328
    },
    {
      "type": "Feature",
      "geometry": { "type": "Point", "coordinates": [13.464704, 52.523868] },
      "properties": {
        "id": 499,
        "name": "Storkower Straße",
        "line": "S85"
      },
      "id": 499
    },
    {
      "type": "Feature",
      "geometry": { "type": "Point", "coordinates": [13.397841, 52.554763] },
      "properties": {
        "id": 533,
        "name": "Bornholmer Straße",
        "line": "S85"
      },
      "id": 533
    },
    {
      "type": "Feature",
      "geometry": { "type": "Point", "coordinates": [13.474029, 52.478722] },
      "properties": { "id": 552, "name": "Plänterwald", "line": "S85" },
      "id": 552
    },
    {
      "type": "Feature",
      "geometry": { "type": "Point", "coordinates": [13.461825, 52.493832] },
      "properties": { "id": 574, "name": "Treptower Park", "line": "S85" },
      "id": 574
    },
    {
      "type": "Feature",
      "geometry": { "type": "Point", "coordinates": [13.574018, 52.412714] },
      "properties": { "id": 648, "name": "Grünau", "line": "S85" },
      "id": 648
    },
    {
      "type": "Feature",
      "geometry": { "type": "Point", "coordinates": [13.469221, 52.503113] },
      "properties": { "id": 697, "name": "Ostkreuz", "line": "S85" },
      "id": 697
    },
    {
      "type": "Feature",
      "geometry": { "type": "Point", "coordinates": [13.455944, 52.528772] },
      "properties": {
        "id": 712,
        "name": "Landsberger Allee",
        "line": "S85"
      },
      "id": 712
    },
    {
      "type": "Feature",
      "geometry": { "type": "Point", "coordinates": [13.415138, 52.549336] },
      "properties": {
        "id": 716,
        "name": "Schönhauser Allee",
        "line": "S85"
      },
      "id": 716
    },
    {
      "type": "Feature",
      "geometry": { "type": "Point", "coordinates": [13.510149, 52.454611] },
      "properties": { "id": 725, "name": "Schöneweide", "line": "S85" },
      "id": 725
    },
    {
      "type": "Feature",
      "geometry": { "type": "Point", "coordinates": [13.498359, 52.510672] },
      "properties": { "id": 188, "name": "Lichtenberg", "line": "S75" },
      "id": 188
    },
    {
      "type": "Feature",
      "geometry": { "type": "Point", "coordinates": [13.512215, 52.565637] },
      "properties": {
        "id": 206,
        "name": "Hohenschönhausen",
        "line": "S75"
      },
      "id": 206
    },
    {
      "type": "Feature",
      "geometry": { "type": "Point", "coordinates": [13.449159, 52.505765] },
      "properties": {
        "id": 391,
        "name": "Warschauer Straße",
        "line": "S75"
      },
      "id": 391
    },
    {
      "type": "Feature",
      "geometry": { "type": "Point", "coordinates": [13.525653, 52.555736] },
      "properties": {
        "id": 396,
        "name": "Gehrenseestraße",
        "line": "S75"
      },
      "id": 396
    },
    {
      "type": "Feature",
      "geometry": { "type": "Point", "coordinates": [13.536904, 52.525806] },
      "properties": { "id": 479, "name": "Springpfuhl", "line": "S75" },
      "id": 479
    },
    {
      "type": "Feature",
      "geometry": { "type": "Point", "coordinates": [13.519078, 52.513531] },
      "properties": {
        "id": 539,
        "name": "Friedrichsfelde Ost",
        "line": "S75"
      },
      "id": 539
    },
    {
      "type": "Feature",
      "geometry": { "type": "Point", "coordinates": [13.504238, 52.573266] },
      "properties": { "id": 567, "name": "Wartenberg", "line": "S75" },
      "id": 567
    },
    {
      "type": "Feature",
      "geometry": { "type": "Point", "coordinates": [13.435086, 52.510331] },
      "properties": { "id": 607, "name": "Ostbahnhof", "line": "S75" },
      "id": 607
    },
    {
      "type": "Feature",
      "geometry": { "type": "Point", "coordinates": [13.469221, 52.503113] },
      "properties": { "id": 695, "name": "Ostkreuz", "line": "S75" },
      "id": 695
    },
    {
      "type": "Feature",
      "geometry": { "type": "Point", "coordinates": [13.484297, 52.503444] },
      "properties": { "id": 740, "name": "Nöldnerplatz", "line": "S75" },
      "id": 740
    },
    {
      "type": "Feature",
      "geometry": { "type": "Point", "coordinates": [13.489505, 52.467581] },
      "properties": { "id": 151, "name": "Baumschulenweg", "line": "S47" },
      "id": 151
    },
    {
      "type": "Feature",
      "geometry": { "type": "Point", "coordinates": [13.562701, 52.445938] },
      "properties": { "id": 241, "name": "Spindlersfeld", "line": "S47" },
      "id": 241
    },
    {
      "type": "Feature",
      "geometry": { "type": "Point", "coordinates": [13.538461, 52.452269] },
      "properties": { "id": 427, "name": "Oberspree", "line": "S47" },
      "id": 427
    },
    {
      "type": "Feature",
      "geometry": { "type": "Point", "coordinates": [13.431704, 52.467181] },
      "properties": { "id": 432, "name": "Hermannstraße", "line": "S47" },
      "id": 432
    },
    {
      "type": "Feature",
      "geometry": { "type": "Point", "coordinates": [13.443692, 52.469282] },
      "properties": { "id": 560, "name": "Neukölln", "line": "S47" },
      "id": 560
    },
    {
      "type": "Feature",
      "geometry": { "type": "Point", "coordinates": [13.510149, 52.454611] },
      "properties": { "id": 723, "name": "Schöneweide", "line": "S47" },
      "id": 723
    },
    {
      "type": "Feature",
      "geometry": { "type": "Point", "coordinates": [13.467529, 52.469168] },
      "properties": {
        "id": 774,
        "name": "Köllnische Heide",
        "line": "S47"
      },
      "id": 774
    },
    {
      "type": "Feature",
      "geometry": { "type": "Point", "coordinates": [13.615038, 52.371909] },
      "properties": { "id": 104, "name": "Eichwalde", "line": "S46" },
      "id": 104
    },
    {
      "type": "Feature",
      "geometry": { "type": "Point", "coordinates": [13.31229, 52.480124] },
      "properties": {
        "id": 136,
        "name": "Heidelberger Platz",
        "line": "S46"
      },
      "id": 136
    },
    {
      "type": "Feature",
      "geometry": { "type": "Point", "coordinates": [13.3859, 52.470574] },
      "properties": { "id": 145, "name": "Tempelhof", "line": "S46" },
      "id": 145
    },
    {
      "type": "Feature",
      "geometry": { "type": "Point", "coordinates": [13.489505, 52.467581] },
      "properties": { "id": 150, "name": "Baumschulenweg", "line": "S46" },
      "id": 150
    },
    {
      "type": "Feature",
      "geometry": { "type": "Point", "coordinates": [13.524028, 52.446695] },
      "properties": { "id": 156, "name": "Johannisthal", "line": "S46" },
      "id": 156
    },
    {
      "type": "Feature",
      "geometry": { "type": "Point", "coordinates": [13.540553, 52.435102] },
      "properties": { "id": 164, "name": "Adlershof", "line": "S46" },
      "id": 164
    },
    {
      "type": "Feature",
      "geometry": { "type": "Point", "coordinates": [13.284237, 52.51861] },
      "properties": { "id": 198, "name": "Westend", "line": "S46" },
      "id": 198
    },
    {
      "type": "Feature",
      "geometry": { "type": "Point", "coordinates": [13.283036, 52.501152] },
      "properties": { "id": 211, "name": "Westkreuz", "line": "S46" },
      "id": 211
    },
    {
      "type": "Feature",
      "geometry": { "type": "Point", "coordinates": [13.290151, 52.496698] },
      "properties": { "id": 249, "name": "Halensee", "line": "S46" },
      "id": 249
    },
    {
      "type": "Feature",
      "geometry": { "type": "Point", "coordinates": [13.328626, 52.477667] },
      "properties": { "id": 259, "name": "Bundesplatz", "line": "S46" },
      "id": 259
    },
    {
      "type": "Feature",
      "geometry": { "type": "Point", "coordinates": [13.328703, 52.534314] },
      "properties": { "id": 295, "name": "Beusselstraße", "line": "S46" },
      "id": 295
    },
    {
      "type": "Feature",
      "geometry": { "type": "Point", "coordinates": [13.631534, 52.296719] },
      "properties": {
        "id": 313,
        "name": "Königs Wusterhausen",
        "line": "S46"
      },
      "id": 313
    },
    {
      "type": "Feature",
      "geometry": { "type": "Point", "coordinates": [13.303862, 52.504732] },
      "properties": { "id": 350, "name": "Charlottenburg", "line": "S46" },
      "id": 350
    },
    {
      "type": "Feature",
      "geometry": { "type": "Point", "coordinates": [13.342875, 52.4781] },
      "properties": {
        "id": 386,
        "name": "Innsbrucker Platz",
        "line": "S46"
      },
      "id": 386
    },
    {
      "type": "Feature",
      "geometry": { "type": "Point", "coordinates": [13.365552, 52.475502] },
      "properties": { "id": 415, "name": "Südkreuz", "line": "S46" },
      "id": 415
    },
    {
      "type": "Feature",
      "geometry": { "type": "Point", "coordinates": [13.300714, 52.488337] },
      "properties": {
        "id": 419,
        "name": "Hohenzollerndamm",
        "line": "S46"
      },
      "id": 419
    },
    {
      "type": "Feature",
      "geometry": { "type": "Point", "coordinates": [13.431704, 52.467181] },
      "properties": { "id": 431, "name": "Hermannstraße", "line": "S46" },
      "id": 431
    },
    {
      "type": "Feature",
      "geometry": { "type": "Point", "coordinates": [13.36606, 52.542732] },
      "properties": { "id": 436, "name": "Wedding", "line": "S46" },
      "id": 436
    },
    {
      "type": "Feature",
      "geometry": { "type": "Point", "coordinates": [13.352848, 52.479811] },
      "properties": { "id": 459, "name": "Schöneberg", "line": "S46" },
      "id": 459
    },
    {
      "type": "Feature",
      "geometry": { "type": "Point", "coordinates": [13.633587, 52.319205] },
      "properties": { "id": 462, "name": "Wildau", "line": "S46" },
      "id": 462
    },
    {
      "type": "Feature",
      "geometry": { "type": "Point", "coordinates": [13.300135, 52.530431] },
      "properties": { "id": 472, "name": "Jungfernheide", "line": "S46" },
      "id": 472
    },
    {
      "type": "Feature",
      "geometry": { "type": "Point", "coordinates": [13.627012, 52.349351] },
      "properties": { "id": 488, "name": "Zeuthen", "line": "S46" },
      "id": 488
    },
    {
      "type": "Feature",
      "geometry": { "type": "Point", "coordinates": [13.443692, 52.469282] },
      "properties": { "id": 559, "name": "Neukölln", "line": "S46" },
      "id": 559
    },
    {
      "type": "Feature",
      "geometry": { "type": "Point", "coordinates": [13.282884, 52.506622] },
      "properties": { "id": 566, "name": "Messe Nord/Icc", "line": "S46" },
      "id": 566
    },
    {
      "type": "Feature",
      "geometry": { "type": "Point", "coordinates": [13.574018, 52.412714] },
      "properties": { "id": 646, "name": "Grünau", "line": "S46" },
      "id": 646
    },
    {
      "type": "Feature",
      "geometry": { "type": "Point", "coordinates": [13.388372, 52.548637] },
      "properties": { "id": 676, "name": "Gesundbrunnen", "line": "S46" },
      "id": 676
    },
    {
      "type": "Feature",
      "geometry": { "type": "Point", "coordinates": [13.510149, 52.454611] },
      "properties": { "id": 722, "name": "Schöneweide", "line": "S46" },
      "id": 722
    },
    {
      "type": "Feature",
      "geometry": { "type": "Point", "coordinates": [13.343837, 52.536183] },
      "properties": { "id": 751, "name": "Westhafen", "line": "S46" },
      "id": 751
    },
    {
      "type": "Feature",
      "geometry": { "type": "Point", "coordinates": [13.467529, 52.469168] },
      "properties": {
        "id": 773,
        "name": "Köllnische Heide",
        "line": "S46"
      },
      "id": 773
    },
    {
      "type": "Feature",
      "geometry": { "type": "Point", "coordinates": [13.513522, 52.390792] },
      "properties": {
        "id": 47,
        "name": "Flughafen BER – Terminal 5",
        "line": "S45"
      },
      "id": 47
    },
    {
      "type": "Feature",
      "geometry": { "type": "Point", "coordinates": [13.31229, 52.480124] },
      "properties": {
        "id": 135,
        "name": "Heidelberger Platz",
        "line": "S45"
      },
      "id": 135
    },
    {
      "type": "Feature",
      "geometry": { "type": "Point", "coordinates": [13.3859, 52.470574] },
      "properties": { "id": 144, "name": "Tempelhof", "line": "S45" },
      "id": 144
    },
    {
      "type": "Feature",
      "geometry": { "type": "Point", "coordinates": [13.489505, 52.467581] },
      "properties": { "id": 149, "name": "Baumschulenweg", "line": "S45" },
      "id": 149
    },
    {
      "type": "Feature",
      "geometry": { "type": "Point", "coordinates": [13.524028, 52.446695] },
      "properties": { "id": 155, "name": "Johannisthal", "line": "S45" },
      "id": 155
    },
    {
      "type": "Feature",
      "geometry": { "type": "Point", "coordinates": [13.540553, 52.435102] },
      "properties": { "id": 163, "name": "Adlershof", "line": "S45" },
      "id": 163
    },
    {
      "type": "Feature",
      "geometry": { "type": "Point", "coordinates": [13.290151, 52.496698] },
      "properties": { "id": 248, "name": "Halensee", "line": "S45" },
      "id": 248
    },
    {
      "type": "Feature",
      "geometry": { "type": "Point", "coordinates": [13.328626, 52.477667] },
      "properties": { "id": 258, "name": "Bundesplatz", "line": "S45" },
      "id": 258
    },
    {
      "type": "Feature",
      "geometry": { "type": "Point", "coordinates": [13.303862, 52.504732] },
      "properties": { "id": 349, "name": "Charlottenburg", "line": "S45" },
      "id": 349
    },
    {
      "type": "Feature",
      "geometry": { "type": "Point", "coordinates": [13.342875, 52.4781] },
      "properties": {
        "id": 385,
        "name": "Innsbrucker Platz",
        "line": "S45"
      },
      "id": 385
    },
    {
      "type": "Feature",
      "geometry": { "type": "Point", "coordinates": [13.365552, 52.475502] },
      "properties": { "id": 414, "name": "Südkreuz", "line": "S45" },
      "id": 414
    },
    {
      "type": "Feature",
      "geometry": { "type": "Point", "coordinates": [13.300714, 52.488337] },
      "properties": {
        "id": 418,
        "name": "Hohenzollerndamm",
        "line": "S45"
      },
      "id": 418
    },
    {
      "type": "Feature",
      "geometry": { "type": "Point", "coordinates": [13.431704, 52.467181] },
      "properties": { "id": 430, "name": "Hermannstraße", "line": "S45" },
      "id": 430
    },
    {
      "type": "Feature",
      "geometry": { "type": "Point", "coordinates": [13.352848, 52.479811] },
      "properties": { "id": 458, "name": "Schöneberg", "line": "S45" },
      "id": 458
    },
    {
      "type": "Feature",
      "geometry": { "type": "Point", "coordinates": [13.463564, 52.368384] },
      "properties": { "id": 460, "name": "Waßmannsdorf", "line": "S45" },
      "id": 460
    },
    {
      "type": "Feature",
      "geometry": { "type": "Point", "coordinates": [13.474029, 52.478722] },
      "properties": { "id": 550, "name": "Plänterwald", "line": "S45" },
      "id": 550
    },
    {
      "type": "Feature",
      "geometry": { "type": "Point", "coordinates": [13.443692, 52.469282] },
      "properties": { "id": 558, "name": "Neukölln", "line": "S45" },
      "id": 558
    },
    {
      "type": "Feature",
      "geometry": { "type": "Point", "coordinates": [13.461825, 52.493832] },
      "properties": { "id": 572, "name": "Treptower Park", "line": "S45" },
      "id": 572
    },
    {
      "type": "Feature",
      "geometry": { "type": "Point", "coordinates": [13.559602, 52.407791] },
      "properties": { "id": 609, "name": "Altglienicke", "line": "S45" },
      "id": 609
    },
    {
      "type": "Feature",
      "geometry": { "type": "Point", "coordinates": [13.574018, 52.412714] },
      "properties": { "id": 645, "name": "Grünau", "line": "S45" },
      "id": 645
    },
    {
      "type": "Feature",
      "geometry": { "type": "Point", "coordinates": [13.510149, 52.454611] },
      "properties": { "id": 721, "name": "Schöneweide", "line": "S45" },
      "id": 721
    },
    {
      "type": "Feature",
      "geometry": { "type": "Point", "coordinates": [13.467529, 52.469168] },
      "properties": {
        "id": 772,
        "name": "Köllnische Heide",
        "line": "S45"
      },
      "id": 772
    },
    {
      "type": "Feature",
      "geometry": { "type": "Point", "coordinates": [13.509874, 52.364606] },
      "properties": {
        "id": 790,
        "name": "Flughafen Ber - Terminal 1-2",
        "line": "S45"
      },
      "id": 790
    },
    {
      "type": "Feature",
      "geometry": { "type": "Point", "coordinates": [13.543222, 52.399539] },
      "properties": { "id": 794, "name": "Grünbergallee", "line": "S45" },
      "id": 794
    },
    {
      "type": "Feature",
      "geometry": { "type": "Point", "coordinates": [13.427419, 52.544802] },
      "properties": { "id": 7, "name": "Prenzlauer Allee", "line": "S42" },
      "id": 7
    },
    {
      "type": "Feature",
      "geometry": { "type": "Point", "coordinates": [13.475848, 52.51358] },
      "properties": {
        "id": 61,
        "name": "Frankfurter Allee",
        "line": "S42"
      },
      "id": 61
    },
    {
      "type": "Feature",
      "geometry": { "type": "Point", "coordinates": [13.31229, 52.480124] },
      "properties": {
        "id": 134,
        "name": "Heidelberger Platz",
        "line": "S42"
      },
      "id": 134
    },
    {
      "type": "Feature",
      "geometry": { "type": "Point", "coordinates": [13.3859, 52.470574] },
      "properties": { "id": 143, "name": "Tempelhof", "line": "S42" },
      "id": 143
    },
    {
      "type": "Feature",
      "geometry": { "type": "Point", "coordinates": [13.284237, 52.51861] },
      "properties": { "id": 197, "name": "Westend", "line": "S42" },
      "id": 197
    },
    {
      "type": "Feature",
      "geometry": { "type": "Point", "coordinates": [13.283036, 52.501152] },
      "properties": { "id": 210, "name": "Westkreuz", "line": "S42" },
      "id": 210
    },
    {
      "type": "Feature",
      "geometry": { "type": "Point", "coordinates": [13.290151, 52.496698] },
      "properties": { "id": 247, "name": "Halensee", "line": "S42" },
      "id": 247
    },
    {
      "type": "Feature",
      "geometry": { "type": "Point", "coordinates": [13.328626, 52.477667] },
      "properties": { "id": 257, "name": "Bundesplatz", "line": "S42" },
      "id": 257
    },
    {
      "type": "Feature",
      "geometry": { "type": "Point", "coordinates": [13.328703, 52.534314] },
      "properties": { "id": 294, "name": "Beusselstraße", "line": "S42" },
      "id": 294
    },
    {
      "type": "Feature",
      "geometry": { "type": "Point", "coordinates": [13.438356, 52.540724] },
      "properties": {
        "id": 326,
        "name": "Greifswalder Straße",
        "line": "S42"
      },
      "id": 326
    },
    {
      "type": "Feature",
      "geometry": { "type": "Point", "coordinates": [13.342875, 52.4781] },
      "properties": {
        "id": 384,
        "name": "Innsbrucker Platz",
        "line": "S42"
      },
      "id": 384
    },
    {
      "type": "Feature",
      "geometry": { "type": "Point", "coordinates": [13.365552, 52.475502] },
      "properties": { "id": 413, "name": "Südkreuz", "line": "S42" },
      "id": 413
    },
    {
      "type": "Feature",
      "geometry": { "type": "Point", "coordinates": [13.300714, 52.488337] },
      "properties": {
        "id": 417,
        "name": "Hohenzollerndamm",
        "line": "S42"
      },
      "id": 417
    },
    {
      "type": "Feature",
      "geometry": { "type": "Point", "coordinates": [13.431704, 52.467181] },
      "properties": { "id": 429, "name": "Hermannstraße", "line": "S42" },
      "id": 429
    },
    {
      "type": "Feature",
      "geometry": { "type": "Point", "coordinates": [13.36606, 52.542732] },
      "properties": { "id": 435, "name": "Wedding", "line": "S42" },
      "id": 435
    },
    {
      "type": "Feature",
      "geometry": { "type": "Point", "coordinates": [13.352848, 52.479811] },
      "properties": { "id": 457, "name": "Schöneberg", "line": "S42" },
      "id": 457
    },
    {
      "type": "Feature",
      "geometry": { "type": "Point", "coordinates": [13.300135, 52.530431] },
      "properties": { "id": 471, "name": "Jungfernheide", "line": "S42" },
      "id": 471
    },
    {
      "type": "Feature",
      "geometry": { "type": "Point", "coordinates": [13.464704, 52.523868] },
      "properties": {
        "id": 497,
        "name": "Storkower Straße",
        "line": "S42"
      },
      "id": 497
    },
    {
      "type": "Feature",
      "geometry": { "type": "Point", "coordinates": [13.443692, 52.469282] },
      "properties": { "id": 557, "name": "Neukölln", "line": "S42" },
      "id": 557
    },
    {
      "type": "Feature",
      "geometry": { "type": "Point", "coordinates": [13.282884, 52.506622] },
      "properties": { "id": 565, "name": "Messe Nord/Icc", "line": "S42" },
      "id": 565
    },
    {
      "type": "Feature",
      "geometry": { "type": "Point", "coordinates": [13.461825, 52.493832] },
      "properties": { "id": 571, "name": "Treptower Park", "line": "S42" },
      "id": 571
    },
    {
      "type": "Feature",
      "geometry": { "type": "Point", "coordinates": [13.388372, 52.548637] },
      "properties": { "id": 675, "name": "Gesundbrunnen", "line": "S42" },
      "id": 675
    },
    {
      "type": "Feature",
      "geometry": { "type": "Point", "coordinates": [13.469221, 52.503113] },
      "properties": { "id": 692, "name": "Ostkreuz", "line": "S42" },
      "id": 692
    },
    {
      "type": "Feature",
      "geometry": { "type": "Point", "coordinates": [13.455944, 52.528772] },
      "properties": {
        "id": 710,
        "name": "Landsberger Allee",
        "line": "S42"
      },
      "id": 710
    },
    {
      "type": "Feature",
      "geometry": { "type": "Point", "coordinates": [13.415138, 52.549336] },
      "properties": {
        "id": 714,
        "name": "Schönhauser Allee",
        "line": "S42"
      },
      "id": 714
    },
    {
      "type": "Feature",
      "geometry": { "type": "Point", "coordinates": [13.455986, 52.473843] },
      "properties": { "id": 733, "name": "Sonnenallee", "line": "S42" },
      "id": 733
    },
    {
      "type": "Feature",
      "geometry": { "type": "Point", "coordinates": [13.343837, 52.536183] },
      "properties": { "id": 750, "name": "Westhafen", "line": "S42" },
      "id": 750
    },
    {
      "type": "Feature",
      "geometry": { "type": "Point", "coordinates": [13.427419, 52.544802] },
      "properties": { "id": 6, "name": "Prenzlauer Allee", "line": "S41" },
      "id": 6
    },
    {
      "type": "Feature",
      "geometry": { "type": "Point", "coordinates": [13.475848, 52.51358] },
      "properties": {
        "id": 60,
        "name": "Frankfurter Allee",
        "line": "S41"
      },
      "id": 60
    },
    {
      "type": "Feature",
      "geometry": { "type": "Point", "coordinates": [13.31229, 52.480124] },
      "properties": {
        "id": 133,
        "name": "Heidelberger Platz",
        "line": "S41"
      },
      "id": 133
    },
    {
      "type": "Feature",
      "geometry": { "type": "Point", "coordinates": [13.3859, 52.470574] },
      "properties": { "id": 142, "name": "Tempelhof", "line": "S41" },
      "id": 142
    },
    {
      "type": "Feature",
      "geometry": { "type": "Point", "coordinates": [13.284237, 52.51861] },
      "properties": { "id": 196, "name": "Westend", "line": "S41" },
      "id": 196
    },
    {
      "type": "Feature",
      "geometry": { "type": "Point", "coordinates": [13.283036, 52.501152] },
      "properties": { "id": 209, "name": "Westkreuz", "line": "S41" },
      "id": 209
    },
    {
      "type": "Feature",
      "geometry": { "type": "Point", "coordinates": [13.290151, 52.496698] },
      "properties": { "id": 246, "name": "Halensee", "line": "S41" },
      "id": 246
    },
    {
      "type": "Feature",
      "geometry": { "type": "Point", "coordinates": [13.328626, 52.477667] },
      "properties": { "id": 256, "name": "Bundesplatz", "line": "S41" },
      "id": 256
    },
    {
      "type": "Feature",
      "geometry": { "type": "Point", "coordinates": [13.328703, 52.534314] },
      "properties": { "id": 293, "name": "Beusselstraße", "line": "S41" },
      "id": 293
    },
    {
      "type": "Feature",
      "geometry": { "type": "Point", "coordinates": [13.438356, 52.540724] },
      "properties": {
        "id": 325,
        "name": "Greifswalder Straße",
        "line": "S41"
      },
      "id": 325
    },
    {
      "type": "Feature",
      "geometry": { "type": "Point", "coordinates": [13.342875, 52.4781] },
      "properties": {
        "id": 383,
        "name": "Innsbrucker Platz",
        "line": "S41"
      },
      "id": 383
    },
    {
      "type": "Feature",
      "geometry": { "type": "Point", "coordinates": [13.365552, 52.475502] },
      "properties": { "id": 412, "name": "Südkreuz", "line": "S41" },
      "id": 412
    },
    {
      "type": "Feature",
      "geometry": { "type": "Point", "coordinates": [13.300714, 52.488337] },
      "properties": {
        "id": 416,
        "name": "Hohenzollerndamm",
        "line": "S41"
      },
      "id": 416
    },
    {
      "type": "Feature",
      "geometry": { "type": "Point", "coordinates": [13.431704, 52.467181] },
      "properties": { "id": 428, "name": "Hermannstraße", "line": "S41" },
      "id": 428
    },
    {
      "type": "Feature",
      "geometry": { "type": "Point", "coordinates": [13.36606, 52.542732] },
      "properties": { "id": 434, "name": "Wedding", "line": "S41" },
      "id": 434
    },
    {
      "type": "Feature",
      "geometry": { "type": "Point", "coordinates": [13.352848, 52.479811] },
      "properties": { "id": 456, "name": "Schöneberg", "line": "S41" },
      "id": 456
    },
    {
      "type": "Feature",
      "geometry": { "type": "Point", "coordinates": [13.300135, 52.530431] },
      "properties": { "id": 470, "name": "Jungfernheide", "line": "S41" },
      "id": 470
    },
    {
      "type": "Feature",
      "geometry": { "type": "Point", "coordinates": [13.464704, 52.523868] },
      "properties": {
        "id": 496,
        "name": "Storkower Straße",
        "line": "S41"
      },
      "id": 496
    },
    {
      "type": "Feature",
      "geometry": { "type": "Point", "coordinates": [13.443692, 52.469282] },
      "properties": { "id": 556, "name": "Neukölln", "line": "S41" },
      "id": 556
    },
    {
      "type": "Feature",
      "geometry": { "type": "Point", "coordinates": [13.282884, 52.506622] },
      "properties": { "id": 564, "name": "Messe Nord/Icc", "line": "S41" },
      "id": 564
    },
    {
      "type": "Feature",
      "geometry": { "type": "Point", "coordinates": [13.461825, 52.493832] },
      "properties": { "id": 570, "name": "Treptower Park", "line": "S41" },
      "id": 570
    },
    {
      "type": "Feature",
      "geometry": { "type": "Point", "coordinates": [13.388372, 52.548637] },
      "properties": { "id": 674, "name": "Gesundbrunnen", "line": "S41" },
      "id": 674
    },
    {
      "type": "Feature",
      "geometry": { "type": "Point", "coordinates": [13.469221, 52.503113] },
      "properties": { "id": 691, "name": "Ostkreuz", "line": "S41" },
      "id": 691
    },
    {
      "type": "Feature",
      "geometry": { "type": "Point", "coordinates": [13.455944, 52.528772] },
      "properties": {
        "id": 709,
        "name": "Landsberger Allee",
        "line": "S41"
      },
      "id": 709
    },
    {
      "type": "Feature",
      "geometry": { "type": "Point", "coordinates": [13.415138, 52.549336] },
      "properties": {
        "id": 713,
        "name": "Schönhauser Allee",
        "line": "S41"
      },
      "id": 713
    },
    {
      "type": "Feature",
      "geometry": { "type": "Point", "coordinates": [13.455986, 52.473843] },
      "properties": { "id": 732, "name": "Sonnenallee", "line": "S41" },
      "id": 732
    },
    {
      "type": "Feature",
      "geometry": { "type": "Point", "coordinates": [13.343837, 52.536183] },
      "properties": { "id": 749, "name": "Westhafen", "line": "S41" },
      "id": 749
    },
    {
      "type": "Feature",
      "geometry": { "type": "Point", "coordinates": [13.327749, 52.429294] },
      "properties": {
        "id": 27,
        "name": "Lichterfelde Ost",
        "line": "S26"
      },
      "id": 27
    },
    {
      "type": "Feature",
      "geometry": { "type": "Point", "coordinates": [13.313865, 52.418373] },
      "properties": { "id": 29, "name": "Osdorfer Straße", "line": "S26" },
      "id": 29
    },
    {
      "type": "Feature",
      "geometry": { "type": "Point", "coordinates": [13.376547, 52.509358] },
      "properties": { "id": 76, "name": "Potsdamer Platz", "line": "S26" },
      "id": 76
    },
    {
      "type": "Feature",
      "geometry": { "type": "Point", "coordinates": [13.362938, 52.581389] },
      "properties": { "id": 86, "name": "Wilhelmsruh", "line": "S26" },
      "id": 86
    },
    {
      "type": "Feature",
      "geometry": { "type": "Point", "coordinates": [13.380242, 52.571901] },
      "properties": { "id": 91, "name": "Schönholz", "line": "S26" },
      "id": 91
    },
    {
      "type": "Feature",
      "geometry": { "type": "Point", "coordinates": [13.39315, 52.564974] },
      "properties": { "id": 140, "name": "Wollankstraße", "line": "S26" },
      "id": 140
    },
    {
      "type": "Feature",
      "geometry": { "type": "Point", "coordinates": [13.34276, 52.439034] },
      "properties": { "id": 192, "name": "Lankwitz", "line": "S26" },
      "id": 192
    },
    {
      "type": "Feature",
      "geometry": { "type": "Point", "coordinates": [13.37873, 52.544738] },
      "properties": { "id": 285, "name": "Humboldthain", "line": "S26" },
      "id": 285
    },
    {
      "type": "Feature",
      "geometry": { "type": "Point", "coordinates": [13.276028, 52.39718] },
      "properties": { "id": 355, "name": "Teltow Stadt", "line": "S26" },
      "id": 355
    },
    {
      "type": "Feature",
      "geometry": { "type": "Point", "coordinates": [13.308662, 52.409956] },
      "properties": {
        "id": 359,
        "name": "Lichterfelde Süd",
        "line": "S26"
      },
      "id": 359
    },
    {
      "type": "Feature",
      "geometry": { "type": "Point", "coordinates": [13.372212, 52.492358] },
      "properties": { "id": 365, "name": "Yorckstraße", "line": "S26" },
      "id": 365
    },
    {
      "type": "Feature",
      "geometry": { "type": "Point", "coordinates": [13.393068, 52.525161] },
      "properties": {
        "id": 373,
        "name": "Oranienburger Straße",
        "line": "S26"
      },
      "id": 373
    },
    {
      "type": "Feature",
      "geometry": { "type": "Point", "coordinates": [13.365552, 52.475502] },
      "properties": { "id": 411, "name": "Südkreuz", "line": "S26" },
      "id": 411
    },
    {
      "type": "Feature",
      "geometry": { "type": "Point", "coordinates": [13.382077, 52.504538] },
      "properties": {
        "id": 426,
        "name": "Anhalter Bahnhof",
        "line": "S26"
      },
      "id": 426
    },
    {
      "type": "Feature",
      "geometry": { "type": "Point", "coordinates": [13.356028, 52.459239] },
      "properties": { "id": 454, "name": "Priesterweg", "line": "S26" },
      "id": 454
    },
    {
      "type": "Feature",
      "geometry": { "type": "Point", "coordinates": [13.381937, 52.516511] },
      "properties": {
        "id": 485,
        "name": "Brandenburger Tor",
        "line": "S26"
      },
      "id": 485
    },
    {
      "type": "Feature",
      "geometry": { "type": "Point", "coordinates": [13.38645, 52.520521] },
      "properties": {
        "id": 520,
        "name": "Friedrichstraße",
        "line": "S26"
      },
      "id": 520
    },
    {
      "type": "Feature",
      "geometry": { "type": "Point", "coordinates": [13.397841, 52.554763] },
      "properties": {
        "id": 531,
        "name": "Bornholmer Straße",
        "line": "S26"
      },
      "id": 531
    },
    {
      "type": "Feature",
      "geometry": { "type": "Point", "coordinates": [13.335481, 52.596392] },
      "properties": { "id": 547, "name": "Wittenau", "line": "S26" },
      "id": 547
    },
    {
      "type": "Feature",
      "geometry": { "type": "Point", "coordinates": [13.388372, 52.548637] },
      "properties": { "id": 673, "name": "Gesundbrunnen", "line": "S26" },
      "id": 673
    },
    {
      "type": "Feature",
      "geometry": { "type": "Point", "coordinates": [13.320549, 52.606814] },
      "properties": { "id": 728, "name": "Waidmannslust", "line": "S26" },
      "id": 728
    },
    {
      "type": "Feature",
      "geometry": { "type": "Point", "coordinates": [13.388798, 52.531672] },
      "properties": { "id": 745, "name": "Nordbahnhof", "line": "S26" },
      "id": 745
    },
    {
      "type": "Feature",
      "geometry": { "type": "Point", "coordinates": [13.354077, 52.448899] },
      "properties": { "id": 780, "name": "Südende", "line": "S26" },
      "id": 780
    },
    {
      "type": "Feature",
      "geometry": { "type": "Point", "coordinates": [13.327749, 52.429294] },
      "properties": {
        "id": 26,
        "name": "Lichterfelde Ost",
        "line": "S25"
      },
      "id": 26
    },
    {
      "type": "Feature",
      "geometry": { "type": "Point", "coordinates": [13.313865, 52.418373] },
      "properties": { "id": 28, "name": "Osdorfer Straße", "line": "S25" },
      "id": 28
    },
    {
      "type": "Feature",
      "geometry": { "type": "Point", "coordinates": [13.315583, 52.577545] },
      "properties": { "id": 30, "name": "Eichborndamm", "line": "S25" },
      "id": 30
    },
    {
      "type": "Feature",
      "geometry": { "type": "Point", "coordinates": [13.332921, 52.578169] },
      "properties": {
        "id": 31,
        "name": "Karl-Bonhoeffer-Nervenklinik",
        "line": "S25"
      },
      "id": 31
    },
    {
      "type": "Feature",
      "geometry": { "type": "Point", "coordinates": [13.376547, 52.509358] },
      "properties": { "id": 75, "name": "Potsdamer Platz", "line": "S25" },
      "id": 75
    },
    {
      "type": "Feature",
      "geometry": { "type": "Point", "coordinates": [13.380242, 52.571901] },
      "properties": { "id": 90, "name": "Schönholz", "line": "S25" },
      "id": 90
    },
    {
      "type": "Feature",
      "geometry": { "type": "Point", "coordinates": [13.24563, 52.613513] },
      "properties": { "id": 92, "name": "Schulzendorf", "line": "S25" },
      "id": 92
    },
    {
      "type": "Feature",
      "geometry": { "type": "Point", "coordinates": [13.288695, 52.588805] },
      "properties": { "id": 101, "name": "Tegel", "line": "S25" },
      "id": 101
    },
    {
      "type": "Feature",
      "geometry": { "type": "Point", "coordinates": [13.39315, 52.564974] },
      "properties": { "id": 139, "name": "Wollankstraße", "line": "S25" },
      "id": 139
    },
    {
      "type": "Feature",
      "geometry": { "type": "Point", "coordinates": [13.349747, 52.577969] },
      "properties": {
        "id": 147,
        "name": "Alt-Reinickendorf",
        "line": "S25"
      },
      "id": 147
    },
    {
      "type": "Feature",
      "geometry": { "type": "Point", "coordinates": [13.34276, 52.439034] },
      "properties": { "id": 191, "name": "Lankwitz", "line": "S25" },
      "id": 191
    },
    {
      "type": "Feature",
      "geometry": { "type": "Point", "coordinates": [13.37873, 52.544738] },
      "properties": { "id": 284, "name": "Humboldthain", "line": "S25" },
      "id": 284
    },
    {
      "type": "Feature",
      "geometry": { "type": "Point", "coordinates": [13.228667, 52.625148] },
      "properties": { "id": 289, "name": "Heiligensee", "line": "S25" },
      "id": 289
    },
    {
      "type": "Feature",
      "geometry": { "type": "Point", "coordinates": [13.276028, 52.39718] },
      "properties": { "id": 354, "name": "Teltow Stadt", "line": "S25" },
      "id": 354
    },
    {
      "type": "Feature",
      "geometry": { "type": "Point", "coordinates": [13.308662, 52.409956] },
      "properties": {
        "id": 358,
        "name": "Lichterfelde Süd",
        "line": "S25"
      },
      "id": 358
    },
    {
      "type": "Feature",
      "geometry": { "type": "Point", "coordinates": [13.372212, 52.492358] },
      "properties": { "id": 364, "name": "Yorckstraße", "line": "S25" },
      "id": 364
    },
    {
      "type": "Feature",
      "geometry": { "type": "Point", "coordinates": [13.393068, 52.525161] },
      "properties": {
        "id": 372,
        "name": "Oranienburger Straße",
        "line": "S25"
      },
      "id": 372
    },
    {
      "type": "Feature",
      "geometry": { "type": "Point", "coordinates": [13.365552, 52.475502] },
      "properties": { "id": 410, "name": "Südkreuz", "line": "S25" },
      "id": 410
    },
    {
      "type": "Feature",
      "geometry": { "type": "Point", "coordinates": [13.382077, 52.504538] },
      "properties": {
        "id": 425,
        "name": "Anhalter Bahnhof",
        "line": "S25"
      },
      "id": 425
    },
    {
      "type": "Feature",
      "geometry": { "type": "Point", "coordinates": [13.356028, 52.459239] },
      "properties": { "id": 453, "name": "Priesterweg", "line": "S25" },
      "id": 453
    },
    {
      "type": "Feature",
      "geometry": { "type": "Point", "coordinates": [13.381937, 52.516511] },
      "properties": {
        "id": 484,
        "name": "Brandenburger Tor",
        "line": "S25"
      },
      "id": 484
    },
    {
      "type": "Feature",
      "geometry": { "type": "Point", "coordinates": [13.38645, 52.520521] },
      "properties": {
        "id": 519,
        "name": "Friedrichstraße",
        "line": "S25"
      },
      "id": 519
    },
    {
      "type": "Feature",
      "geometry": { "type": "Point", "coordinates": [13.397841, 52.554763] },
      "properties": {
        "id": 530,
        "name": "Bornholmer Straße",
        "line": "S25"
      },
      "id": 530
    },
    {
      "type": "Feature",
      "geometry": { "type": "Point", "coordinates": [13.388372, 52.548637] },
      "properties": { "id": 672, "name": "Gesundbrunnen", "line": "S25" },
      "id": 672
    },
    {
      "type": "Feature",
      "geometry": { "type": "Point", "coordinates": [13.388798, 52.531672] },
      "properties": { "id": 744, "name": "Nordbahnhof", "line": "S25" },
      "id": 744
    },
    {
      "type": "Feature",
      "geometry": { "type": "Point", "coordinates": [13.205874, 52.637867] },
      "properties": { "id": 763, "name": "Hennigsdorf", "line": "S25" },
      "id": 763
    },
    {
      "type": "Feature",
      "geometry": { "type": "Point", "coordinates": [13.354077, 52.448899] },
      "properties": { "id": 779, "name": "Südende", "line": "S25" },
      "id": 779
    },
    {
      "type": "Feature",
      "geometry": { "type": "Point", "coordinates": [13.513522, 52.390792] },
      "properties": {
        "id": 48,
        "name": "Flughafen BER – Terminal 5",
        "line": "S9"
      },
      "id": 48
    },
    {
      "type": "Feature",
      "geometry": { "type": "Point", "coordinates": [13.411267, 52.521512] },
      "properties": { "id": 120, "name": "Alexanderplatz", "line": "S9" },
      "id": 120
    },
    {
      "type": "Feature",
      "geometry": { "type": "Point", "coordinates": [13.347098, 52.519951] },
      "properties": { "id": 131, "name": "Bellevue", "line": "S9" },
      "id": 131
    },
    {
      "type": "Feature",
      "geometry": { "type": "Point", "coordinates": [13.489505, 52.467581] },
      "properties": { "id": 154, "name": "Baumschulenweg", "line": "S9" },
      "id": 154
    },
    {
      "type": "Feature",
      "geometry": { "type": "Point", "coordinates": [13.524028, 52.446695] },
      "properties": { "id": 159, "name": "Johannisthal", "line": "S9" },
      "id": 159
    },
    {
      "type": "Feature",
      "geometry": { "type": "Point", "coordinates": [13.20928, 52.532009] },
      "properties": { "id": 161, "name": "Stresow", "line": "S9" },
      "id": 161
    },
    {
      "type": "Feature",
      "geometry": { "type": "Point", "coordinates": [13.540553, 52.435102] },
      "properties": { "id": 167, "name": "Adlershof", "line": "S9" },
      "id": 167
    },
    {
      "type": "Feature",
      "geometry": { "type": "Point", "coordinates": [13.261944, 52.48868] },
      "properties": { "id": 171, "name": "Grunewald", "line": "S9" },
      "id": 171
    },
    {
      "type": "Feature",
      "geometry": { "type": "Point", "coordinates": [13.498359, 52.510672] },
      "properties": { "id": 189, "name": "Lichtenberg", "line": "S9" },
      "id": 189
    },
    {
      "type": "Feature",
      "geometry": { "type": "Point", "coordinates": [13.283036, 52.501152] },
      "properties": { "id": 214, "name": "Westkreuz", "line": "S9" },
      "id": 214
    },
    {
      "type": "Feature",
      "geometry": { "type": "Point", "coordinates": [13.332707, 52.506921] },
      "properties": {
        "id": 228,
        "name": "Zoologischer Garten",
        "line": "S9"
      },
      "id": 228
    },
    {
      "type": "Feature",
      "geometry": { "type": "Point", "coordinates": [13.27045, 52.498771] },
      "properties": { "id": 253, "name": "Messe Süd", "line": "S9" },
      "id": 253
    },
    {
      "type": "Feature",
      "geometry": { "type": "Point", "coordinates": [13.319003, 52.505223] },
      "properties": { "id": 270, "name": "Savignyplatz", "line": "S9" },
      "id": 270
    },
    {
      "type": "Feature",
      "geometry": { "type": "Point", "coordinates": [13.336241, 52.513959] },
      "properties": { "id": 318, "name": "Tiergarten", "line": "S9" },
      "id": 318
    },
    {
      "type": "Feature",
      "geometry": { "type": "Point", "coordinates": [13.303862, 52.504732] },
      "properties": { "id": 353, "name": "Charlottenburg", "line": "S9" },
      "id": 353
    },
    {
      "type": "Feature",
      "geometry": { "type": "Point", "coordinates": [13.241111, 52.511135] },
      "properties": { "id": 381, "name": "Olympiastadion", "line": "S9" },
      "id": 381
    },
    {
      "type": "Feature",
      "geometry": { "type": "Point", "coordinates": [13.449159, 52.505765] },
      "properties": {
        "id": 392,
        "name": "Warschauer Straße",
        "line": "S9"
      },
      "id": 392
    },
    {
      "type": "Feature",
      "geometry": { "type": "Point", "coordinates": [13.228253, 52.509927] },
      "properties": { "id": 422, "name": "Pichelsberg", "line": "S9" },
      "id": 422
    },
    {
      "type": "Feature",
      "geometry": { "type": "Point", "coordinates": [13.463564, 52.368384] },
      "properties": { "id": 461, "name": "Waßmannsdorf", "line": "S9" },
      "id": 461
    },
    {
      "type": "Feature",
      "geometry": { "type": "Point", "coordinates": [13.418027, 52.5155] },
      "properties": { "id": 506, "name": "Jannowitzbrücke", "line": "S9" },
      "id": 506
    },
    {
      "type": "Feature",
      "geometry": { "type": "Point", "coordinates": [13.38645, 52.520521] },
      "properties": { "id": 524, "name": "Friedrichstraße", "line": "S9" },
      "id": 524
    },
    {
      "type": "Feature",
      "geometry": { "type": "Point", "coordinates": [13.474029, 52.478722] },
      "properties": { "id": 553, "name": "Plänterwald", "line": "S9" },
      "id": 553
    },
    {
      "type": "Feature",
      "geometry": { "type": "Point", "coordinates": [13.461825, 52.493832] },
      "properties": { "id": 575, "name": "Treptower Park", "line": "S9" },
      "id": 575
    },
    {
      "type": "Feature",
      "geometry": { "type": "Point", "coordinates": [13.435086, 52.510331] },
      "properties": { "id": 608, "name": "Ostbahnhof", "line": "S9" },
      "id": 608
    },
    {
      "type": "Feature",
      "geometry": { "type": "Point", "coordinates": [13.559602, 52.407791] },
      "properties": { "id": 610, "name": "Altglienicke", "line": "S9" },
      "id": 610
    },
    {
      "type": "Feature",
      "geometry": { "type": "Point", "coordinates": [13.369075, 52.525605] },
      "properties": { "id": 625, "name": "Hauptbahnhof", "line": "S9" },
      "id": 625
    },
    {
      "type": "Feature",
      "geometry": { "type": "Point", "coordinates": [13.574018, 52.412714] },
      "properties": { "id": 649, "name": "Grünau", "line": "S9" },
      "id": 649
    },
    {
      "type": "Feature",
      "geometry": { "type": "Point", "coordinates": [13.469221, 52.503113] },
      "properties": { "id": 698, "name": "Ostkreuz", "line": "S9" },
      "id": 698
    },
    {
      "type": "Feature",
      "geometry": { "type": "Point", "coordinates": [13.197477, 52.534798] },
      "properties": { "id": 708, "name": "Spandau", "line": "S9" },
      "id": 708
    },
    {
      "type": "Feature",
      "geometry": { "type": "Point", "coordinates": [13.510149, 52.454611] },
      "properties": { "id": 726, "name": "Schöneweide", "line": "S9" },
      "id": 726
    },
    {
      "type": "Feature",
      "geometry": { "type": "Point", "coordinates": [13.484297, 52.503444] },
      "properties": { "id": 741, "name": "Nöldnerplatz", "line": "S9" },
      "id": 741
    },
    {
      "type": "Feature",
      "geometry": { "type": "Point", "coordinates": [13.258514, 52.508273] },
      "properties": { "id": 756, "name": "Heerstraße", "line": "S9" },
      "id": 756
    },
    {
      "type": "Feature",
      "geometry": { "type": "Point", "coordinates": [13.402358, 52.522607] },
      "properties": {
        "id": 771,
        "name": "Hackescher Markt",
        "line": "S9"
      },
      "id": 771
    },
    {
      "type": "Feature",
      "geometry": { "type": "Point", "coordinates": [13.509874, 52.364606] },
      "properties": {
        "id": 791,
        "name": "Flughafen Ber - Terminal 1-2",
        "line": "S9"
      },
      "id": 791
    },
    {
      "type": "Feature",
      "geometry": { "type": "Point", "coordinates": [13.543222, 52.399539] },
      "properties": { "id": 795, "name": "Grünbergallee", "line": "S9" },
      "id": 795
    },
    {
      "type": "Feature",
      "geometry": { "type": "Point", "coordinates": [13.427419, 52.544802] },
      "properties": { "id": 8, "name": "Prenzlauer Allee", "line": "S8" },
      "id": 8
    },
    {
      "type": "Feature",
      "geometry": { "type": "Point", "coordinates": [13.412279, 52.567281] },
      "properties": { "id": 36, "name": "Pankow", "line": "S8" },
      "id": 36
    },
    {
      "type": "Feature",
      "geometry": { "type": "Point", "coordinates": [13.475848, 52.51358] },
      "properties": {
        "id": 62,
        "name": "Frankfurter Allee",
        "line": "S8"
      },
      "id": 62
    },
    {
      "type": "Feature",
      "geometry": { "type": "Point", "coordinates": [13.442972, 52.591069] },
      "properties": { "id": 80, "name": "Blankenburg", "line": "S8" },
      "id": 80
    },
    {
      "type": "Feature",
      "geometry": { "type": "Point", "coordinates": [13.615038, 52.371909] },
      "properties": { "id": 105, "name": "Eichwalde", "line": "S8" },
      "id": 105
    },
    {
      "type": "Feature",
      "geometry": { "type": "Point", "coordinates": [13.489505, 52.467581] },
      "properties": { "id": 152, "name": "Baumschulenweg", "line": "S8" },
      "id": 152
    },
    {
      "type": "Feature",
      "geometry": { "type": "Point", "coordinates": [13.524028, 52.446695] },
      "properties": { "id": 157, "name": "Johannisthal", "line": "S8" },
      "id": 157
    },
    {
      "type": "Feature",
      "geometry": { "type": "Point", "coordinates": [13.540553, 52.435102] },
      "properties": { "id": 165, "name": "Adlershof", "line": "S8" },
      "id": 165
    },
    {
      "type": "Feature",
      "geometry": { "type": "Point", "coordinates": [13.287223, 52.669446] },
      "properties": { "id": 194, "name": "Hohen Neuendorf", "line": "S8" },
      "id": 194
    },
    {
      "type": "Feature",
      "geometry": { "type": "Point", "coordinates": [13.321455, 52.669695] },
      "properties": { "id": 238, "name": "Bergfelde", "line": "S8" },
      "id": 238
    },
    {
      "type": "Feature",
      "geometry": { "type": "Point", "coordinates": [13.42909, 52.577603] },
      "properties": {
        "id": 265,
        "name": "Pankow-Heinersdorf",
        "line": "S8"
      },
      "id": 265
    },
    {
      "type": "Feature",
      "geometry": { "type": "Point", "coordinates": [13.438356, 52.540724] },
      "properties": {
        "id": 327,
        "name": "Greifswalder Straße",
        "line": "S8"
      },
      "id": 327
    },
    {
      "type": "Feature",
      "geometry": { "type": "Point", "coordinates": [13.340511, 52.664592] },
      "properties": { "id": 334, "name": "Schönfließ", "line": "S8" },
      "id": 334
    },
    {
      "type": "Feature",
      "geometry": { "type": "Point", "coordinates": [13.36606, 52.542732] },
      "properties": { "id": 437, "name": "Wedding", "line": "S8" },
      "id": 437
    },
    {
      "type": "Feature",
      "geometry": { "type": "Point", "coordinates": [13.633587, 52.319205] },
      "properties": { "id": 463, "name": "Wildau", "line": "S8" },
      "id": 463
    },
    {
      "type": "Feature",
      "geometry": { "type": "Point", "coordinates": [13.627012, 52.349351] },
      "properties": { "id": 489, "name": "Zeuthen", "line": "S8" },
      "id": 489
    },
    {
      "type": "Feature",
      "geometry": { "type": "Point", "coordinates": [13.464704, 52.523868] },
      "properties": {
        "id": 498,
        "name": "Storkower Straße",
        "line": "S8"
      },
      "id": 498
    },
    {
      "type": "Feature",
      "geometry": { "type": "Point", "coordinates": [13.397841, 52.554763] },
      "properties": {
        "id": 532,
        "name": "Bornholmer Straße",
        "line": "S8"
      },
      "id": 532
    },
    {
      "type": "Feature",
      "geometry": { "type": "Point", "coordinates": [13.388224, 52.654076] },
      "properties": {
        "id": 543,
        "name": "Mühlenbeck-Mönchmühle",
        "line": "S8"
      },
      "id": 543
    },
    {
      "type": "Feature",
      "geometry": { "type": "Point", "coordinates": [13.474029, 52.478722] },
      "properties": { "id": 551, "name": "Plänterwald", "line": "S8" },
      "id": 551
    },
    {
      "type": "Feature",
      "geometry": { "type": "Point", "coordinates": [13.461825, 52.493832] },
      "properties": { "id": 573, "name": "Treptower Park", "line": "S8" },
      "id": 573
    },
    {
      "type": "Feature",
      "geometry": { "type": "Point", "coordinates": [13.288846, 52.688576] },
      "properties": { "id": 588, "name": "Birkenwerder", "line": "S8" },
      "id": 588
    },
    {
      "type": "Feature",
      "geometry": { "type": "Point", "coordinates": [13.574018, 52.412714] },
      "properties": { "id": 647, "name": "Grünau", "line": "S8" },
      "id": 647
    },
    {
      "type": "Feature",
      "geometry": { "type": "Point", "coordinates": [13.388372, 52.548637] },
      "properties": { "id": 677, "name": "Gesundbrunnen", "line": "S8" },
      "id": 677
    },
    {
      "type": "Feature",
      "geometry": { "type": "Point", "coordinates": [13.469221, 52.503113] },
      "properties": { "id": 696, "name": "Ostkreuz", "line": "S8" },
      "id": 696
    },
    {
      "type": "Feature",
      "geometry": { "type": "Point", "coordinates": [13.455944, 52.528772] },
      "properties": {
        "id": 711,
        "name": "Landsberger Allee",
        "line": "S8"
      },
      "id": 711
    },
    {
      "type": "Feature",
      "geometry": { "type": "Point", "coordinates": [13.415138, 52.549336] },
      "properties": {
        "id": 715,
        "name": "Schönhauser Allee",
        "line": "S8"
      },
      "id": 715
    },
    {
      "type": "Feature",
      "geometry": { "type": "Point", "coordinates": [13.510149, 52.454611] },
      "properties": { "id": 724, "name": "Schöneweide", "line": "S8" },
      "id": 724
    },
    {
      "type": "Feature",
      "geometry": { "type": "Point", "coordinates": [13.128808, 52.393945] },
      "properties": { "id": 15, "name": "Griebnitzsee", "line": "S7" },
      "id": 15
    },
    {
      "type": "Feature",
      "geometry": { "type": "Point", "coordinates": [13.178932, 52.421725] },
      "properties": { "id": 56, "name": "Wannsee", "line": "S7" },
      "id": 56
    },
    {
      "type": "Feature",
      "geometry": { "type": "Point", "coordinates": [13.565649, 52.571339] },
      "properties": { "id": 107, "name": "Ahrensfelde", "line": "S7" },
      "id": 107
    },
    {
      "type": "Feature",
      "geometry": { "type": "Point", "coordinates": [13.411267, 52.521512] },
      "properties": { "id": 119, "name": "Alexanderplatz", "line": "S7" },
      "id": 119
    },
    {
      "type": "Feature",
      "geometry": { "type": "Point", "coordinates": [13.541524, 52.543272] },
      "properties": { "id": 126, "name": "Marzahn", "line": "S7" },
      "id": 126
    },
    {
      "type": "Feature",
      "geometry": { "type": "Point", "coordinates": [13.347098, 52.519951] },
      "properties": { "id": 130, "name": "Bellevue", "line": "S7" },
      "id": 130
    },
    {
      "type": "Feature",
      "geometry": { "type": "Point", "coordinates": [13.261944, 52.48868] },
      "properties": { "id": 170, "name": "Grunewald", "line": "S7" },
      "id": 170
    },
    {
      "type": "Feature",
      "geometry": { "type": "Point", "coordinates": [13.498359, 52.510672] },
      "properties": { "id": 187, "name": "Lichtenberg", "line": "S7" },
      "id": 187
    },
    {
      "type": "Feature",
      "geometry": { "type": "Point", "coordinates": [13.554392, 52.557816] },
      "properties": { "id": 200, "name": "Mehrower Allee", "line": "S7" },
      "id": 200
    },
    {
      "type": "Feature",
      "geometry": { "type": "Point", "coordinates": [13.283036, 52.501152] },
      "properties": { "id": 213, "name": "Westkreuz", "line": "S7" },
      "id": 213
    },
    {
      "type": "Feature",
      "geometry": { "type": "Point", "coordinates": [13.332707, 52.506921] },
      "properties": {
        "id": 227,
        "name": "Zoologischer Garten",
        "line": "S7"
      },
      "id": 227
    },
    {
      "type": "Feature",
      "geometry": { "type": "Point", "coordinates": [13.27045, 52.498771] },
      "properties": { "id": 252, "name": "Messe Süd", "line": "S7" },
      "id": 252
    },
    {
      "type": "Feature",
      "geometry": { "type": "Point", "coordinates": [13.319003, 52.505223] },
      "properties": { "id": 269, "name": "Savignyplatz", "line": "S7" },
      "id": 269
    },
    {
      "type": "Feature",
      "geometry": { "type": "Point", "coordinates": [13.066172, 52.391663] },
      "properties": {
        "id": 279,
        "name": "Potsdam Hauptbahnhof",
        "line": "S7"
      },
      "id": 279
    },
    {
      "type": "Feature",
      "geometry": { "type": "Point", "coordinates": [13.094634, 52.391449] },
      "properties": { "id": 302, "name": "Babelsberg", "line": "S7" },
      "id": 302
    },
    {
      "type": "Feature",
      "geometry": { "type": "Point", "coordinates": [13.336241, 52.513959] },
      "properties": { "id": 317, "name": "Tiergarten", "line": "S7" },
      "id": 317
    },
    {
      "type": "Feature",
      "geometry": { "type": "Point", "coordinates": [13.548392, 52.550749] },
      "properties": {
        "id": 331,
        "name": "Raoul-Wallenberg-Straße",
        "line": "S7"
      },
      "id": 331
    },
    {
      "type": "Feature",
      "geometry": { "type": "Point", "coordinates": [13.536008, 52.534751] },
      "properties": { "id": 333, "name": "Poelchaustraße", "line": "S7" },
      "id": 333
    },
    {
      "type": "Feature",
      "geometry": { "type": "Point", "coordinates": [13.303862, 52.504732] },
      "properties": { "id": 352, "name": "Charlottenburg", "line": "S7" },
      "id": 352
    },
    {
      "type": "Feature",
      "geometry": { "type": "Point", "coordinates": [13.241111, 52.511135] },
      "properties": { "id": 380, "name": "Olympiastadion", "line": "S7" },
      "id": 380
    },
    {
      "type": "Feature",
      "geometry": { "type": "Point", "coordinates": [13.449159, 52.505765] },
      "properties": {
        "id": 390,
        "name": "Warschauer Straße",
        "line": "S7"
      },
      "id": 390
    },
    {
      "type": "Feature",
      "geometry": { "type": "Point", "coordinates": [13.536904, 52.525806] },
      "properties": { "id": 478, "name": "Springpfuhl", "line": "S7" },
      "id": 478
    },
    {
      "type": "Feature",
      "geometry": { "type": "Point", "coordinates": [13.193298, 52.43121] },
      "properties": { "id": 501, "name": "Nikolassee", "line": "S7" },
      "id": 501
    },
    {
      "type": "Feature",
      "geometry": { "type": "Point", "coordinates": [13.418027, 52.5155] },
      "properties": { "id": 505, "name": "Jannowitzbrücke", "line": "S7" },
      "id": 505
    },
    {
      "type": "Feature",
      "geometry": { "type": "Point", "coordinates": [13.38645, 52.520521] },
      "properties": { "id": 523, "name": "Friedrichstraße", "line": "S7" },
      "id": 523
    },
    {
      "type": "Feature",
      "geometry": { "type": "Point", "coordinates": [13.519078, 52.513531] },
      "properties": {
        "id": 538,
        "name": "Friedrichsfelde Ost",
        "line": "S7"
      },
      "id": 538
    },
    {
      "type": "Feature",
      "geometry": { "type": "Point", "coordinates": [13.435086, 52.510331] },
      "properties": { "id": 606, "name": "Ostbahnhof", "line": "S7" },
      "id": 606
    },
    {
      "type": "Feature",
      "geometry": { "type": "Point", "coordinates": [13.369075, 52.525605] },
      "properties": { "id": 624, "name": "Hauptbahnhof", "line": "S7" },
      "id": 624
    },
    {
      "type": "Feature",
      "geometry": { "type": "Point", "coordinates": [13.469221, 52.503113] },
      "properties": { "id": 694, "name": "Ostkreuz", "line": "S7" },
      "id": 694
    },
    {
      "type": "Feature",
      "geometry": { "type": "Point", "coordinates": [13.484297, 52.503444] },
      "properties": { "id": 739, "name": "Nöldnerplatz", "line": "S7" },
      "id": 739
    },
    {
      "type": "Feature",
      "geometry": { "type": "Point", "coordinates": [13.258514, 52.508273] },
      "properties": { "id": 755, "name": "Heerstraße", "line": "S7" },
      "id": 755
    },
    {
      "type": "Feature",
      "geometry": { "type": "Point", "coordinates": [13.402358, 52.522607] },
      "properties": {
        "id": 770,
        "name": "Hackescher Markt",
        "line": "S7"
      },
      "id": 770
    },
    {
      "type": "Feature",
      "geometry": { "type": "Point", "coordinates": [13.574536, 52.512724] },
      "properties": { "id": 81, "name": "Wuhletal", "line": "S5" },
      "id": 81
    },
    {
      "type": "Feature",
      "geometry": { "type": "Point", "coordinates": [13.555035, 52.513059] },
      "properties": { "id": 94, "name": "Biesdorf", "line": "S5" },
      "id": 94
    },
    {
      "type": "Feature",
      "geometry": { "type": "Point", "coordinates": [13.411267, 52.521512] },
      "properties": { "id": 118, "name": "Alexanderplatz", "line": "S5" },
      "id": 118
    },
    {
      "type": "Feature",
      "geometry": { "type": "Point", "coordinates": [13.347098, 52.519951] },
      "properties": { "id": 129, "name": "Bellevue", "line": "S5" },
      "id": 129
    },
    {
      "type": "Feature",
      "geometry": { "type": "Point", "coordinates": [13.261944, 52.48868] },
      "properties": { "id": 169, "name": "Grunewald", "line": "S5" },
      "id": 169
    },
    {
      "type": "Feature",
      "geometry": { "type": "Point", "coordinates": [13.498359, 52.510672] },
      "properties": { "id": 186, "name": "Lichtenberg", "line": "S5" },
      "id": 186
    },
    {
      "type": "Feature",
      "geometry": { "type": "Point", "coordinates": [13.283036, 52.501152] },
      "properties": { "id": 212, "name": "Westkreuz", "line": "S5" },
      "id": 212
    },
    {
      "type": "Feature",
      "geometry": { "type": "Point", "coordinates": [13.332707, 52.506921] },
      "properties": {
        "id": 226,
        "name": "Zoologischer Garten",
        "line": "S5"
      },
      "id": 226
    },
    {
      "type": "Feature",
      "geometry": { "type": "Point", "coordinates": [13.27045, 52.498771] },
      "properties": { "id": 251, "name": "Messe Süd", "line": "S5" },
      "id": 251
    },
    {
      "type": "Feature",
      "geometry": { "type": "Point", "coordinates": [13.319003, 52.505223] },
      "properties": { "id": 268, "name": "Savignyplatz", "line": "S5" },
      "id": 268
    },
    {
      "type": "Feature",
      "geometry": { "type": "Point", "coordinates": [13.336241, 52.513959] },
      "properties": { "id": 316, "name": "Tiergarten", "line": "S5" },
      "id": 316
    },
    {
      "type": "Feature",
      "geometry": { "type": "Point", "coordinates": [13.908894, 52.5907] },
      "properties": { "id": 319, "name": "Strausberg Nord", "line": "S5" },
      "id": 319
    },
    {
      "type": "Feature",
      "geometry": { "type": "Point", "coordinates": [13.303862, 52.504732] },
      "properties": { "id": 351, "name": "Charlottenburg", "line": "S5" },
      "id": 351
    },
    {
      "type": "Feature",
      "geometry": { "type": "Point", "coordinates": [13.241111, 52.511135] },
      "properties": { "id": 379, "name": "Olympiastadion", "line": "S5" },
      "id": 379
    },
    {
      "type": "Feature",
      "geometry": { "type": "Point", "coordinates": [13.449159, 52.505765] },
      "properties": {
        "id": 389,
        "name": "Warschauer Straße",
        "line": "S5"
      },
      "id": 389
    },
    {
      "type": "Feature",
      "geometry": { "type": "Point", "coordinates": [13.700053, 52.520614] },
      "properties": { "id": 476, "name": "Neuenhagen", "line": "S5" },
      "id": 476
    },
    {
      "type": "Feature",
      "geometry": { "type": "Point", "coordinates": [13.58903, 52.512122] },
      "properties": { "id": 490, "name": "Kaulsdorf", "line": "S5" },
      "id": 490
    },
    {
      "type": "Feature",
      "geometry": { "type": "Point", "coordinates": [13.760385, 52.526176] },
      "properties": { "id": 491, "name": "Fredersdorf", "line": "S5" },
      "id": 491
    },
    {
      "type": "Feature",
      "geometry": { "type": "Point", "coordinates": [13.418027, 52.5155] },
      "properties": { "id": 504, "name": "Jannowitzbrücke", "line": "S5" },
      "id": 504
    },
    {
      "type": "Feature",
      "geometry": { "type": "Point", "coordinates": [13.38645, 52.520521] },
      "properties": { "id": 522, "name": "Friedrichstraße", "line": "S5" },
      "id": 522
    },
    {
      "type": "Feature",
      "geometry": { "type": "Point", "coordinates": [13.610693, 52.512041] },
      "properties": { "id": 527, "name": "Mahlsdorf", "line": "S5" },
      "id": 527
    },
    {
      "type": "Feature",
      "geometry": { "type": "Point", "coordinates": [13.519078, 52.513531] },
      "properties": {
        "id": 537,
        "name": "Friedrichsfelde Ost",
        "line": "S5"
      },
      "id": 537
    },
    {
      "type": "Feature",
      "geometry": { "type": "Point", "coordinates": [13.86679, 52.549039] },
      "properties": { "id": 545, "name": "Hegermühle", "line": "S5" },
      "id": 545
    },
    {
      "type": "Feature",
      "geometry": { "type": "Point", "coordinates": [13.834793, 52.532364] },
      "properties": { "id": 555, "name": "Strausberg", "line": "S5" },
      "id": 555
    },
    {
      "type": "Feature",
      "geometry": { "type": "Point", "coordinates": [13.649774, 52.515794] },
      "properties": { "id": 583, "name": "Birkenstein", "line": "S5" },
      "id": 583
    },
    {
      "type": "Feature",
      "geometry": { "type": "Point", "coordinates": [13.435086, 52.510331] },
      "properties": { "id": 605, "name": "Ostbahnhof", "line": "S5" },
      "id": 605
    },
    {
      "type": "Feature",
      "geometry": { "type": "Point", "coordinates": [13.369075, 52.525605] },
      "properties": { "id": 623, "name": "Hauptbahnhof", "line": "S5" },
      "id": 623
    },
    {
      "type": "Feature",
      "geometry": { "type": "Point", "coordinates": [13.888281, 52.577594] },
      "properties": {
        "id": 642,
        "name": "Strausberg Stadt",
        "line": "S5"
      },
      "id": 642
    },
    {
      "type": "Feature",
      "geometry": { "type": "Point", "coordinates": [13.469221, 52.503113] },
      "properties": { "id": 693, "name": "Ostkreuz", "line": "S5" },
      "id": 693
    },
    {
      "type": "Feature",
      "geometry": { "type": "Point", "coordinates": [13.790696, 52.528989] },
      "properties": {
        "id": 699,
        "name": "Petershagen Nord",
        "line": "S5"
      },
      "id": 699
    },
    {
      "type": "Feature",
      "geometry": { "type": "Point", "coordinates": [13.484297, 52.503444] },
      "properties": { "id": 738, "name": "Nöldnerplatz", "line": "S5" },
      "id": 738
    },
    {
      "type": "Feature",
      "geometry": { "type": "Point", "coordinates": [13.258514, 52.508273] },
      "properties": { "id": 754, "name": "Heerstraße", "line": "S5" },
      "id": 754
    },
    {
      "type": "Feature",
      "geometry": { "type": "Point", "coordinates": [13.402358, 52.522607] },
      "properties": {
        "id": 769,
        "name": "Hackescher Markt",
        "line": "S5"
      },
      "id": 769
    },
    {
      "type": "Feature",
      "geometry": { "type": "Point", "coordinates": [13.673748, 52.517831] },
      "properties": { "id": 782, "name": "Hoppegarten", "line": "S5" },
      "id": 782
    },
    {
      "type": "Feature",
      "geometry": { "type": "Point", "coordinates": [13.478699, 52.501213] },
      "properties": { "id": 5, "name": "Rummelsburg", "line": "S3" },
      "id": 5
    },
    {
      "type": "Feature",
      "geometry": { "type": "Point", "coordinates": [13.553527, 52.469058] },
      "properties": { "id": 33, "name": "Wuhlheide", "line": "S3" },
      "id": 33
    },
    {
      "type": "Feature",
      "geometry": { "type": "Point", "coordinates": [13.411267, 52.521512] },
      "properties": { "id": 117, "name": "Alexanderplatz", "line": "S3" },
      "id": 117
    },
    {
      "type": "Feature",
      "geometry": { "type": "Point", "coordinates": [13.625462, 52.45709] },
      "properties": { "id": 127, "name": "Friedrichshagen", "line": "S3" },
      "id": 127
    },
    {
      "type": "Feature",
      "geometry": { "type": "Point", "coordinates": [13.347098, 52.519951] },
      "properties": { "id": 128, "name": "Bellevue", "line": "S3" },
      "id": 128
    },
    {
      "type": "Feature",
      "geometry": { "type": "Point", "coordinates": [13.20928, 52.532009] },
      "properties": { "id": 160, "name": "Stresow", "line": "S3" },
      "id": 160
    },
    {
      "type": "Feature",
      "geometry": { "type": "Point", "coordinates": [13.497509, 52.493957] },
      "properties": {
        "id": 162,
        "name": "Betriebsbahnhof Rummelsburg",
        "line": "S3"
      },
      "id": 162
    },
    {
      "type": "Feature",
      "geometry": { "type": "Point", "coordinates": [13.261944, 52.48868] },
      "properties": { "id": 168, "name": "Grunewald", "line": "S3" },
      "id": 168
    },
    {
      "type": "Feature",
      "geometry": { "type": "Point", "coordinates": [13.498359, 52.510672] },
      "properties": { "id": 185, "name": "Lichtenberg", "line": "S3" },
      "id": 185
    },
    {
      "type": "Feature",
      "geometry": { "type": "Point", "coordinates": [13.721004, 52.438571] },
      "properties": { "id": 207, "name": "Wilhelmshagen", "line": "S3" },
      "id": 207
    },
    {
      "type": "Feature",
      "geometry": { "type": "Point", "coordinates": [13.283036, 52.501152] },
      "properties": { "id": 208, "name": "Westkreuz", "line": "S3" },
      "id": 208
    },
    {
      "type": "Feature",
      "geometry": { "type": "Point", "coordinates": [13.332707, 52.506921] },
      "properties": {
        "id": 225,
        "name": "Zoologischer Garten",
        "line": "S3"
      },
      "id": 225
    },
    {
      "type": "Feature",
      "geometry": { "type": "Point", "coordinates": [13.27045, 52.498771] },
      "properties": { "id": 250, "name": "Messe Süd", "line": "S3" },
      "id": 250
    },
    {
      "type": "Feature",
      "geometry": { "type": "Point", "coordinates": [13.319003, 52.505223] },
      "properties": { "id": 267, "name": "Savignyplatz", "line": "S3" },
      "id": 267
    },
    {
      "type": "Feature",
      "geometry": { "type": "Point", "coordinates": [13.752249, 52.428396] },
      "properties": { "id": 297, "name": "Erkner", "line": "S3" },
      "id": 297
    },
    {
      "type": "Feature",
      "geometry": { "type": "Point", "coordinates": [13.336241, 52.513959] },
      "properties": { "id": 315, "name": "Tiergarten", "line": "S3" },
      "id": 315
    },
    {
      "type": "Feature",
      "geometry": { "type": "Point", "coordinates": [13.303862, 52.504732] },
      "properties": { "id": 346, "name": "Charlottenburg", "line": "S3" },
      "id": 346
    },
    {
      "type": "Feature",
      "geometry": { "type": "Point", "coordinates": [13.60148, 52.457903] },
      "properties": { "id": 376, "name": "Hirschgarten", "line": "S3" },
      "id": 376
    },
    {
      "type": "Feature",
      "geometry": { "type": "Point", "coordinates": [13.241111, 52.511135] },
      "properties": { "id": 378, "name": "Olympiastadion", "line": "S3" },
      "id": 378
    },
    {
      "type": "Feature",
      "geometry": { "type": "Point", "coordinates": [13.449159, 52.505765] },
      "properties": {
        "id": 388,
        "name": "Warschauer Straße",
        "line": "S3"
      },
      "id": 388
    },
    {
      "type": "Feature",
      "geometry": { "type": "Point", "coordinates": [13.228253, 52.509927] },
      "properties": { "id": 421, "name": "Pichelsberg", "line": "S3" },
      "id": 421
    },
    {
      "type": "Feature",
      "geometry": { "type": "Point", "coordinates": [13.418027, 52.5155] },
      "properties": { "id": 503, "name": "Jannowitzbrücke", "line": "S3" },
      "id": 503
    },
    {
      "type": "Feature",
      "geometry": { "type": "Point", "coordinates": [13.38645, 52.520521] },
      "properties": { "id": 521, "name": "Friedrichstraße", "line": "S3" },
      "id": 521
    },
    {
      "type": "Feature",
      "geometry": { "type": "Point", "coordinates": [13.691655, 52.451371] },
      "properties": { "id": 535, "name": "Rahnsdorf", "line": "S3" },
      "id": 535
    },
    {
      "type": "Feature",
      "geometry": { "type": "Point", "coordinates": [13.435086, 52.510331] },
      "properties": { "id": 604, "name": "Ostbahnhof", "line": "S3" },
      "id": 604
    },
    {
      "type": "Feature",
      "geometry": { "type": "Point", "coordinates": [13.369075, 52.525605] },
      "properties": { "id": 622, "name": "Hauptbahnhof", "line": "S3" },
      "id": 622
    },
    {
      "type": "Feature",
      "geometry": { "type": "Point", "coordinates": [13.525857, 52.481111] },
      "properties": { "id": 640, "name": "Karlshorst", "line": "S3" },
      "id": 640
    },
    {
      "type": "Feature",
      "geometry": { "type": "Point", "coordinates": [13.579543, 52.458692] },
      "properties": { "id": 652, "name": "Köpenick", "line": "S3" },
      "id": 652
    },
    {
      "type": "Feature",
      "geometry": { "type": "Point", "coordinates": [13.469221, 52.503113] },
      "properties": { "id": 690, "name": "Ostkreuz", "line": "S3" },
      "id": 690
    },
    {
      "type": "Feature",
      "geometry": { "type": "Point", "coordinates": [13.197477, 52.534798] },
      "properties": { "id": 707, "name": "Spandau", "line": "S3" },
      "id": 707
    },
    {
      "type": "Feature",
      "geometry": { "type": "Point", "coordinates": [13.484297, 52.503444] },
      "properties": { "id": 737, "name": "Nöldnerplatz", "line": "S3" },
      "id": 737
    },
    {
      "type": "Feature",
      "geometry": { "type": "Point", "coordinates": [13.258514, 52.508273] },
      "properties": { "id": 753, "name": "Heerstraße", "line": "S3" },
      "id": 753
    },
    {
      "type": "Feature",
      "geometry": { "type": "Point", "coordinates": [13.402358, 52.522607] },
      "properties": {
        "id": 768,
        "name": "Hackescher Markt",
        "line": "S3"
      },
      "id": 768
    },
    {
      "type": "Feature",
      "geometry": { "type": "Point", "coordinates": [13.412279, 52.567281] },
      "properties": { "id": 35, "name": "Pankow", "line": "S2" },
      "id": 35
    },
    {
      "type": "Feature",
      "geometry": { "type": "Point", "coordinates": [13.376547, 52.509358] },
      "properties": { "id": 74, "name": "Potsdamer Platz", "line": "S2" },
      "id": 74
    },
    {
      "type": "Feature",
      "geometry": { "type": "Point", "coordinates": [13.442972, 52.591069] },
      "properties": { "id": 79, "name": "Blankenburg", "line": "S2" },
      "id": 79
    },
    {
      "type": "Feature",
      "geometry": { "type": "Point", "coordinates": [13.415908, 52.337628] },
      "properties": { "id": 98, "name": "Blankenfelde", "line": "S2" },
      "id": 98
    },
    {
      "type": "Feature",
      "geometry": { "type": "Point", "coordinates": [13.564597, 52.668369] },
      "properties": {
        "id": 195,
        "name": "Bernau-Friedenstal",
        "line": "S2"
      },
      "id": 195
    },
    {
      "type": "Feature",
      "geometry": { "type": "Point", "coordinates": [13.361177, 52.447298] },
      "properties": { "id": 235, "name": "Attilastraße", "line": "S2" },
      "id": 235
    },
    {
      "type": "Feature",
      "geometry": { "type": "Point", "coordinates": [13.408775, 52.360164] },
      "properties": { "id": 245, "name": "Mahlow", "line": "S2" },
      "id": 245
    },
    {
      "type": "Feature",
      "geometry": { "type": "Point", "coordinates": [13.42909, 52.577603] },
      "properties": {
        "id": 264,
        "name": "Pankow-Heinersdorf",
        "line": "S2"
      },
      "id": 264
    },
    {
      "type": "Feature",
      "geometry": { "type": "Point", "coordinates": [13.37873, 52.544738] },
      "properties": { "id": 283, "name": "Humboldthain", "line": "S2" },
      "id": 283
    },
    {
      "type": "Feature",
      "geometry": { "type": "Point", "coordinates": [13.372212, 52.492358] },
      "properties": { "id": 363, "name": "Yorckstraße", "line": "S2" },
      "id": 363
    },
    {
      "type": "Feature",
      "geometry": { "type": "Point", "coordinates": [13.393068, 52.525161] },
      "properties": {
        "id": 371,
        "name": "Oranienburger Straße",
        "line": "S2"
      },
      "id": 371
    },
    {
      "type": "Feature",
      "geometry": { "type": "Point", "coordinates": [13.365552, 52.475502] },
      "properties": { "id": 409, "name": "Südkreuz", "line": "S2" },
      "id": 409
    },
    {
      "type": "Feature",
      "geometry": { "type": "Point", "coordinates": [13.382077, 52.504538] },
      "properties": {
        "id": 424,
        "name": "Anhalter Bahnhof",
        "line": "S2"
      },
      "id": 424
    },
    {
      "type": "Feature",
      "geometry": { "type": "Point", "coordinates": [13.356028, 52.459239] },
      "properties": { "id": 452, "name": "Priesterweg", "line": "S2" },
      "id": 452
    },
    {
      "type": "Feature",
      "geometry": { "type": "Point", "coordinates": [13.381937, 52.516511] },
      "properties": {
        "id": 483,
        "name": "Brandenburger Tor",
        "line": "S2"
      },
      "id": 483
    },
    {
      "type": "Feature",
      "geometry": { "type": "Point", "coordinates": [13.533054, 52.659159] },
      "properties": { "id": 502, "name": "Zepernick", "line": "S2" },
      "id": 502
    },
    {
      "type": "Feature",
      "geometry": { "type": "Point", "coordinates": [13.38645, 52.520521] },
      "properties": { "id": 518, "name": "Friedrichstraße", "line": "S2" },
      "id": 518
    },
    {
      "type": "Feature",
      "geometry": { "type": "Point", "coordinates": [13.397841, 52.554763] },
      "properties": {
        "id": 529,
        "name": "Bornholmer Straße",
        "line": "S2"
      },
      "id": 529
    },
    {
      "type": "Feature",
      "geometry": { "type": "Point", "coordinates": [13.396234, 52.387676] },
      "properties": { "id": 534, "name": "Lichtenrade", "line": "S2" },
      "id": 534
    },
    {
      "type": "Feature",
      "geometry": { "type": "Point", "coordinates": [13.375022, 52.423816] },
      "properties": { "id": 584, "name": "Marienfelde", "line": "S2" },
      "id": 584
    },
    {
      "type": "Feature",
      "geometry": { "type": "Point", "coordinates": [13.592695, 52.675687] },
      "properties": { "id": 637, "name": "Bernau", "line": "S2" },
      "id": 637
    },
    {
      "type": "Feature",
      "geometry": { "type": "Point", "coordinates": [13.389437, 52.39856] },
      "properties": { "id": 638, "name": "Schichauweg", "line": "S2" },
      "id": 638
    },
    {
      "type": "Feature",
      "geometry": { "type": "Point", "coordinates": [13.470081, 52.615755] },
      "properties": { "id": 651, "name": "Karow", "line": "S2" },
      "id": 651
    },
    {
      "type": "Feature",
      "geometry": { "type": "Point", "coordinates": [13.388372, 52.548637] },
      "properties": { "id": 671, "name": "Gesundbrunnen", "line": "S2" },
      "id": 671
    },
    {
      "type": "Feature",
      "geometry": { "type": "Point", "coordinates": [13.492369, 52.636297] },
      "properties": { "id": 729, "name": "Buch", "line": "S2" },
      "id": 729
    },
    {
      "type": "Feature",
      "geometry": { "type": "Point", "coordinates": [13.388798, 52.531672] },
      "properties": { "id": 743, "name": "Nordbahnhof", "line": "S2" },
      "id": 743
    },
    {
      "type": "Feature",
      "geometry": { "type": "Point", "coordinates": [13.38247, 52.411035] },
      "properties": {
        "id": 759,
        "name": "Buckower Chaussee",
        "line": "S2"
      },
      "id": 759
    },
    {
      "type": "Feature",
      "geometry": { "type": "Point", "coordinates": [13.514242, 52.649109] },
      "properties": { "id": 764, "name": "Röntgental", "line": "S2" },
      "id": 764
    },
    {
      "type": "Feature",
      "geometry": { "type": "Point", "coordinates": [13.128808, 52.393945] },
      "properties": { "id": 14, "name": "Griebnitzsee", "line": "S1" },
      "id": 14
    },
    {
      "type": "Feature",
      "geometry": { "type": "Point", "coordinates": [13.178932, 52.421725] },
      "properties": { "id": 55, "name": "Wannsee", "line": "S1" },
      "id": 55
    },
    {
      "type": "Feature",
      "geometry": { "type": "Point", "coordinates": [13.376547, 52.509358] },
      "properties": { "id": 73, "name": "Potsdamer Platz", "line": "S1" },
      "id": 73
    },
    {
      "type": "Feature",
      "geometry": { "type": "Point", "coordinates": [13.26328, 52.741393] },
      "properties": { "id": 84, "name": "Lehnitz", "line": "S1" },
      "id": 84
    },
    {
      "type": "Feature",
      "geometry": { "type": "Point", "coordinates": [13.362938, 52.581389] },
      "properties": { "id": 85, "name": "Wilhelmsruh", "line": "S1" },
      "id": 85
    },
    {
      "type": "Feature",
      "geometry": { "type": "Point", "coordinates": [13.380242, 52.571901] },
      "properties": { "id": 89, "name": "Schönholz", "line": "S1" },
      "id": 89
    },
    {
      "type": "Feature",
      "geometry": { "type": "Point", "coordinates": [13.360775, 52.486263] },
      "properties": {
        "id": 99,
        "name": "Julius-Leber-Brücke",
        "line": "S1"
      },
      "id": 99
    },
    {
      "type": "Feature",
      "geometry": { "type": "Point", "coordinates": [13.23206, 52.437166] },
      "properties": { "id": 109, "name": "Mexikoplatz", "line": "S1" },
      "id": 109
    },
    {
      "type": "Feature",
      "geometry": { "type": "Point", "coordinates": [13.39315, 52.564974] },
      "properties": { "id": 138, "name": "Wollankstraße", "line": "S1" },
      "id": 138
    },
    {
      "type": "Feature",
      "geometry": { "type": "Point", "coordinates": [13.287223, 52.669446] },
      "properties": { "id": 193, "name": "Hohen Neuendorf", "line": "S1" },
      "id": 193
    },
    {
      "type": "Feature",
      "geometry": { "type": "Point", "coordinates": [13.332412, 52.463578] },
      "properties": { "id": 232, "name": "Feuerbachstraße", "line": "S1" },
      "id": 232
    },
    {
      "type": "Feature",
      "geometry": { "type": "Point", "coordinates": [13.294141, 52.443512] },
      "properties": {
        "id": 263,
        "name": "Lichterfelde West",
        "line": "S1"
      },
      "id": 263
    },
    {
      "type": "Feature",
      "geometry": { "type": "Point", "coordinates": [13.066172, 52.391663] },
      "properties": {
        "id": 278,
        "name": "Potsdam Hauptbahnhof",
        "line": "S1"
      },
      "id": 278
    },
    {
      "type": "Feature",
      "geometry": { "type": "Point", "coordinates": [13.289564, 52.632958] },
      "properties": { "id": 281, "name": "Frohnau", "line": "S1" },
      "id": 281
    },
    {
      "type": "Feature",
      "geometry": { "type": "Point", "coordinates": [13.37873, 52.544738] },
      "properties": { "id": 282, "name": "Humboldthain", "line": "S1" },
      "id": 282
    },
    {
      "type": "Feature",
      "geometry": { "type": "Point", "coordinates": [13.213986, 52.439806] },
      "properties": { "id": 288, "name": "Schlachtensee", "line": "S1" },
      "id": 288
    },
    {
      "type": "Feature",
      "geometry": { "type": "Point", "coordinates": [13.322152, 52.455066] },
      "properties": {
        "id": 298,
        "name": "Rathaus Steglitz",
        "line": "S1"
      },
      "id": 298
    },
    {
      "type": "Feature",
      "geometry": { "type": "Point", "coordinates": [13.094634, 52.391449] },
      "properties": { "id": 301, "name": "Babelsberg", "line": "S1" },
      "id": 301
    },
    {
      "type": "Feature",
      "geometry": { "type": "Point", "coordinates": [13.248213, 52.754528] },
      "properties": { "id": 308, "name": "Oranienburg", "line": "S1" },
      "id": 308
    },
    {
      "type": "Feature",
      "geometry": { "type": "Point", "coordinates": [13.372212, 52.492358] },
      "properties": { "id": 362, "name": "Yorckstraße", "line": "S1" },
      "id": 362
    },
    {
      "type": "Feature",
      "geometry": { "type": "Point", "coordinates": [13.393068, 52.525161] },
      "properties": {
        "id": 370,
        "name": "Oranienburger Straße",
        "line": "S1"
      },
      "id": 370
    },
    {
      "type": "Feature",
      "geometry": { "type": "Point", "coordinates": [13.306804, 52.618165] },
      "properties": { "id": 375, "name": "Hermsdorf", "line": "S1" },
      "id": 375
    },
    {
      "type": "Feature",
      "geometry": { "type": "Point", "coordinates": [13.382077, 52.504538] },
      "properties": {
        "id": 423,
        "name": "Anhalter Bahnhof",
        "line": "S1"
      },
      "id": 423
    },
    {
      "type": "Feature",
      "geometry": { "type": "Point", "coordinates": [13.340598, 52.470002] },
      "properties": { "id": 445, "name": "Friedenau", "line": "S1" },
      "id": 445
    },
    {
      "type": "Feature",
      "geometry": { "type": "Point", "coordinates": [13.352848, 52.479811] },
      "properties": { "id": 455, "name": "Schöneberg", "line": "S1" },
      "id": 455
    },
    {
      "type": "Feature",
      "geometry": { "type": "Point", "coordinates": [13.381937, 52.516511] },
      "properties": {
        "id": 482,
        "name": "Brandenburger Tor",
        "line": "S1"
      },
      "id": 482
    },
    {
      "type": "Feature",
      "geometry": { "type": "Point", "coordinates": [13.193298, 52.43121] },
      "properties": { "id": 500, "name": "Nikolassee", "line": "S1" },
      "id": 500
    },
    {
      "type": "Feature",
      "geometry": { "type": "Point", "coordinates": [13.276787, 52.714917] },
      "properties": { "id": 510, "name": "Borgsdorf", "line": "S1" },
      "id": 510
    },
    {
      "type": "Feature",
      "geometry": { "type": "Point", "coordinates": [13.38645, 52.520521] },
      "properties": { "id": 517, "name": "Friedrichstraße", "line": "S1" },
      "id": 517
    },
    {
      "type": "Feature",
      "geometry": { "type": "Point", "coordinates": [13.397841, 52.554763] },
      "properties": {
        "id": 528,
        "name": "Bornholmer Straße",
        "line": "S1"
      },
      "id": 528
    },
    {
      "type": "Feature",
      "geometry": { "type": "Point", "coordinates": [13.335481, 52.596392] },
      "properties": { "id": 546, "name": "Wittenau", "line": "S1" },
      "id": 546
    },
    {
      "type": "Feature",
      "geometry": { "type": "Point", "coordinates": [13.306041, 52.447552] },
      "properties": {
        "id": 578,
        "name": "Botanischer Garten",
        "line": "S1"
      },
      "id": 578
    },
    {
      "type": "Feature",
      "geometry": { "type": "Point", "coordinates": [13.273501, 52.436187] },
      "properties": {
        "id": 585,
        "name": "Sundgauer Straße",
        "line": "S1"
      },
      "id": 585
    },
    {
      "type": "Feature",
      "geometry": { "type": "Point", "coordinates": [13.288846, 52.688576] },
      "properties": { "id": 587, "name": "Birkenwerder", "line": "S1" },
      "id": 587
    },
    {
      "type": "Feature",
      "geometry": { "type": "Point", "coordinates": [13.259227, 52.431209] },
      "properties": { "id": 639, "name": "Zehlendorf", "line": "S1" },
      "id": 639
    },
    {
      "type": "Feature",
      "geometry": { "type": "Point", "coordinates": [13.388372, 52.548637] },
      "properties": { "id": 670, "name": "Gesundbrunnen", "line": "S1" },
      "id": 670
    },
    {
      "type": "Feature",
      "geometry": { "type": "Point", "coordinates": [13.320549, 52.606814] },
      "properties": { "id": 727, "name": "Waidmannslust", "line": "S1" },
      "id": 727
    },
    {
      "type": "Feature",
      "geometry": { "type": "Point", "coordinates": [13.388798, 52.531672] },
      "properties": { "id": 742, "name": "Nordbahnhof", "line": "S1" },
      "id": 742
    },
    {
      "type": "Feature",
      "geometry": { "type": "Point", "coordinates": [13.367365, 52.551524] },
      "properties": { "id": 132, "name": "Nauener Platz", "line": "U9" },
      "id": 132
    },
    {
      "type": "Feature",
      "geometry": { "type": "Point", "coordinates": [13.33121, 52.491992] },
      "properties": { "id": 199, "name": "Güntzelstraße", "line": "U9" },
      "id": 199
    },
    {
      "type": "Feature",
      "geometry": { "type": "Point", "coordinates": [13.373279, 52.557107] },
      "properties": { "id": 218, "name": "Osloer Straße", "line": "U9" },
      "id": 218
    },
    {
      "type": "Feature",
      "geometry": { "type": "Point", "coordinates": [13.332707, 52.506921] },
      "properties": {
        "id": 230,
        "name": "Zoologischer Garten",
        "line": "U9"
      },
      "id": 230
    },
    {
      "type": "Feature",
      "geometry": { "type": "Point", "coordinates": [13.328409, 52.464998] },
      "properties": {
        "id": 234,
        "name": "Walther-Schreiber-Platz",
        "line": "U9"
      },
      "id": 234
    },
    {
      "type": "Feature",
      "geometry": { "type": "Point", "coordinates": [13.328626, 52.477667] },
      "properties": { "id": 260, "name": "Bundesplatz", "line": "U9" },
      "id": 260
    },
    {
      "type": "Feature",
      "geometry": { "type": "Point", "coordinates": [13.322152, 52.455066] },
      "properties": {
        "id": 299,
        "name": "Rathaus Steglitz",
        "line": "U9"
      },
      "id": 299
    },
    {
      "type": "Feature",
      "geometry": { "type": "Point", "coordinates": [13.342165, 52.518111] },
      "properties": { "id": 300, "name": "Hansaplatz", "line": "U9" },
      "id": 300
    },
    {
      "type": "Feature",
      "geometry": { "type": "Point", "coordinates": [13.341418, 52.532269] },
      "properties": { "id": 477, "name": "Birkenstraße", "line": "U9" },
      "id": 477
    },
    {
      "type": "Feature",
      "geometry": { "type": "Point", "coordinates": [13.341417, 52.525938] },
      "properties": { "id": 487, "name": "Turmstraße", "line": "U9" },
      "id": 487
    },
    {
      "type": "Feature",
      "geometry": { "type": "Point", "coordinates": [13.328676, 52.471439] },
      "properties": {
        "id": 495,
        "name": "Friedrich-Wilhelm-Platz",
        "line": "U9"
      },
      "id": 495
    },
    {
      "type": "Feature",
      "geometry": { "type": "Point", "coordinates": [13.324836, 52.461183] },
      "properties": { "id": 580, "name": "Schloßstraße", "line": "U9" },
      "id": 580
    },
    {
      "type": "Feature",
      "geometry": { "type": "Point", "coordinates": [13.331419, 52.503763] },
      "properties": { "id": 595, "name": "Kurfürstendamm", "line": "U9" },
      "id": 595
    },
    {
      "type": "Feature",
      "geometry": { "type": "Point", "coordinates": [13.349534, 52.542202] },
      "properties": { "id": 641, "name": "Amrumer Straße", "line": "U9" },
      "id": 641
    },
    {
      "type": "Feature",
      "geometry": { "type": "Point", "coordinates": [13.330613, 52.496582] },
      "properties": { "id": 654, "name": "Spichernstraße", "line": "U9" },
      "id": 654
    },
    {
      "type": "Feature",
      "geometry": { "type": "Point", "coordinates": [13.343837, 52.536183] },
      "properties": { "id": 752, "name": "Westhafen", "line": "U9" },
      "id": 752
    },
    {
      "type": "Feature",
      "geometry": { "type": "Point", "coordinates": [13.359395, 52.546493] },
      "properties": { "id": 758, "name": "Leopoldplatz", "line": "U9" },
      "id": 758
    },
    {
      "type": "Feature",
      "geometry": { "type": "Point", "coordinates": [13.331355, 52.487047] },
      "properties": { "id": 778, "name": "Berliner Straße", "line": "U9" },
      "id": 778
    },
    {
      "type": "Feature",
      "geometry": { "type": "Point", "coordinates": [13.42472, 52.486957] },
      "properties": { "id": 4, "name": "Hermannplatz", "line": "U8" },
      "id": 4
    },
    {
      "type": "Feature",
      "geometry": { "type": "Point", "coordinates": [13.332921, 52.578169] },
      "properties": {
        "id": 32,
        "name": "Karl-Bonhoeffer-Nervenklinik",
        "line": "U8"
      },
      "id": 32
    },
    {
      "type": "Feature",
      "geometry": { "type": "Point", "coordinates": [13.325568, 52.588218] },
      "properties": {
        "id": 50,
        "name": "Rathaus Reinickendorf",
        "line": "U8"
      },
      "id": 50
    },
    {
      "type": "Feature",
      "geometry": { "type": "Point", "coordinates": [13.360635, 52.570843] },
      "properties": { "id": 108, "name": "Residenzstraße", "line": "U8" },
      "id": 108
    },
    {
      "type": "Feature",
      "geometry": { "type": "Point", "coordinates": [13.411267, 52.521512] },
      "properties": { "id": 123, "name": "Alexanderplatz", "line": "U8" },
      "id": 123
    },
    {
      "type": "Feature",
      "geometry": { "type": "Point", "coordinates": [13.373279, 52.557107] },
      "properties": { "id": 217, "name": "Osloer Straße", "line": "U8" },
      "id": 217
    },
    {
      "type": "Feature",
      "geometry": { "type": "Point", "coordinates": [13.416124, 52.510558] },
      "properties": {
        "id": 233,
        "name": "Heinrich-Heine-Straße",
        "line": "U8"
      },
      "id": 233
    },
    {
      "type": "Feature",
      "geometry": { "type": "Point", "coordinates": [13.4284, 52.472874] },
      "properties": { "id": 239, "name": "Leinestraße", "line": "U8" },
      "id": 239
    },
    {
      "type": "Feature",
      "geometry": { "type": "Point", "coordinates": [13.396231, 52.537994] },
      "properties": { "id": 266, "name": "Bernauer Straße", "line": "U8" },
      "id": 266
    },
    {
      "type": "Feature",
      "geometry": { "type": "Point", "coordinates": [13.347301, 52.574432] },
      "properties": { "id": 338, "name": "Paracelsus-Bad", "line": "U8" },
      "id": 338
    },
    {
      "type": "Feature",
      "geometry": { "type": "Point", "coordinates": [13.381437, 52.55228] },
      "properties": { "id": 368, "name": "Pankstraße", "line": "U8" },
      "id": 368
    },
    {
      "type": "Feature",
      "geometry": { "type": "Point", "coordinates": [13.393157, 52.54193] },
      "properties": { "id": 369, "name": "Voltastraße", "line": "U8" },
      "id": 369
    },
    {
      "type": "Feature",
      "geometry": { "type": "Point", "coordinates": [13.405305, 52.525376] },
      "properties": {
        "id": 420,
        "name": "Weinmeisterstraße",
        "line": "U8"
      },
      "id": 420
    },
    {
      "type": "Feature",
      "geometry": { "type": "Point", "coordinates": [13.431704, 52.467181] },
      "properties": { "id": 433, "name": "Hermannstraße", "line": "U8" },
      "id": 433
    },
    {
      "type": "Feature",
      "geometry": { "type": "Point", "coordinates": [13.401393, 52.529781] },
      "properties": {
        "id": 492,
        "name": "Rosenthaler Platz",
        "line": "U8"
      },
      "id": 492
    },
    {
      "type": "Feature",
      "geometry": { "type": "Point", "coordinates": [13.418027, 52.5155] },
      "properties": { "id": 507, "name": "Jannowitzbrücke", "line": "U8" },
      "id": 507
    },
    {
      "type": "Feature",
      "geometry": { "type": "Point", "coordinates": [13.417748, 52.499047] },
      "properties": { "id": 542, "name": "Kottbusser Tor", "line": "U8" },
      "id": 542
    },
    {
      "type": "Feature",
      "geometry": { "type": "Point", "coordinates": [13.335481, 52.596392] },
      "properties": { "id": 548, "name": "Wittenau", "line": "U8" },
      "id": 548
    },
    {
      "type": "Feature",
      "geometry": { "type": "Point", "coordinates": [13.364283, 52.563854] },
      "properties": {
        "id": 579,
        "name": "Franz-Neumann-Platz",
        "long_name": "Franz-Neumann-Platz (Am Schäfersee)",
        "line": "U8"
      },
      "id": 579
    },
    {
      "type": "Feature",
      "geometry": { "type": "Point", "coordinates": [13.425782, 52.479745] },
      "properties": { "id": 589, "name": "Boddinstraße", "line": "U8" },
      "id": 589
    },
    {
      "type": "Feature",
      "geometry": { "type": "Point", "coordinates": [13.339036, 52.575386] },
      "properties": { "id": 590, "name": "Lindauer Allee", "line": "U8" },
      "id": 590
    },
    {
      "type": "Feature",
      "geometry": { "type": "Point", "coordinates": [13.410947, 52.503739] },
      "properties": { "id": 627, "name": "Moritzplatz", "line": "U8" },
      "id": 627
    },
    {
      "type": "Feature",
      "geometry": { "type": "Point", "coordinates": [13.388372, 52.548637] },
      "properties": { "id": 678, "name": "Gesundbrunnen", "line": "U8" },
      "id": 678
    },
    {
      "type": "Feature",
      "geometry": { "type": "Point", "coordinates": [13.421912, 52.493341] },
      "properties": { "id": 775, "name": "Schönleinstraße", "line": "U8" },
      "id": 775
    },
    {
      "type": "Feature",
      "geometry": { "type": "Point", "coordinates": [13.42472, 52.486957] },
      "properties": { "id": 3, "name": "Hermannplatz", "line": "U7" },
      "id": 3
    },
    {
      "type": "Feature",
      "geometry": { "type": "Point", "coordinates": [13.320545, 52.486478] },
      "properties": { "id": 17, "name": "Blissestraße", "line": "U7" },
      "id": 17
    },
    {
      "type": "Feature",
      "geometry": { "type": "Point", "coordinates": [13.286578, 52.536703] },
      "properties": { "id": 18, "name": "Halemweg", "line": "U7" },
      "id": 18
    },
    {
      "type": "Feature",
      "geometry": { "type": "Point", "coordinates": [13.217625, 52.537522] },
      "properties": { "id": 22, "name": "Zitadelle", "line": "U7" },
      "id": 22
    },
    {
      "type": "Feature",
      "geometry": { "type": "Point", "coordinates": [13.444828, 52.463516] },
      "properties": { "id": 65, "name": "Grenzallee", "line": "U7" },
      "id": 65
    },
    {
      "type": "Feature",
      "geometry": { "type": "Point", "coordinates": [13.307221, 52.517154] },
      "properties": {
        "id": 66,
        "name": "Richard-Wagner-Platz",
        "line": "U7"
      },
      "id": 66
    },
    {
      "type": "Feature",
      "geometry": { "type": "Point", "coordinates": [13.496527, 52.415714] },
      "properties": { "id": 124, "name": "Rudow", "line": "U7" },
      "id": 124
    },
    {
      "type": "Feature",
      "geometry": { "type": "Point", "coordinates": [13.439805, 52.476429] },
      "properties": {
        "id": 125,
        "name": "Karl-Marx-Straße",
        "line": "U7"
      },
      "id": 125
    },
    {
      "type": "Feature",
      "geometry": { "type": "Point", "coordinates": [13.293661, 52.536985] },
      "properties": {
        "id": 148,
        "name": "Jakob-Kaiser-Platz",
        "line": "U7"
      },
      "id": 148
    },